Zip,City,State,Latitude,Longitude,Timezone,Daylight savings time flag,geopoint
16051,Portersville,PA,40.953141,-80.14799,-5,1,"40.953141, -80.14799"
16250,Sagamore,PA,40.776212,-79.23196,-5,1,"40.776212, -79.23196"
18622,Huntington Mills,PA,41.2044,-76.27211,-5,1,"41.2044, -76.27211"
18847,Susquehanna,PA,41.944334,-75.57241,-5,1,"41.944334, -75.57241"
08078,Runnemede,NJ,39.850013,-75.0767,-5,1,"39.850013, -75.0767"
67490,Wilson,KS,38.817788,-98.44972,-6,1,"38.817788, -98.44972"
68629,Clarkson,NE,41.70879,-97.12748,-6,1,"41.70879, -97.12748"
68871,Rockville,NE,41.121028,-98.82619,-6,1,"41.121028, -98.82619"
71137,Shreveport,LA,32.607556,-93.75256,-6,1,"32.607556, -93.75256"
72017,Biscoe,AR,34.864607,-91.40408,-6,1,"34.864607, -91.40408"
62481,Yale,IL,39.122158,-88.01982,-6,1,"39.122158, -88.01982"
77298,Houston,TX,29.83399,-95.434241,-6,1,"29.83399, -95.434241"
78461,Corpus Christi,TX,27.777,-97.463213,-6,1,"27.777, -97.463213"
58281,Wales,ND,48.855352,-98.6171,-6,1,"48.855352, -98.6171"
60601,Chicago,IL,41.886456,-87.62325,-6,1,"41.886456, -87.62325"
72445,Minturn,AR,35.972767,-91.02349,-6,1,"35.972767, -91.02349"
72449,O Kean,AR,36.167303,-90.81515,-6,1,"36.167303, -90.81515"
72830,Clarksville,AR,35.490105,-93.4851,-6,1,"35.490105, -93.4851"
73759,Medford,OK,36.832446,-97.72414,-6,1,"36.832446, -97.72414"
80648,Nunn,CO,40.746862,-104.76208,-7,1,"40.746862, -104.76208"
80913,Colorado Springs,CO,38.743871,-104.76387,-7,1,"38.743871, -104.76387"
81401,Montrose,CO,38.436409,-107.8625,-7,1,"38.436409, -107.8625"
71251,Jonesboro,LA,32.229884,-92.69763,-6,1,"32.229884, -92.69763"
71711,Camden,AR,33.589009,-92.842649,-6,1,"33.589009, -92.842649"
71772,Whelen Springs,AR,33.832537,-93.1238,-6,1,"33.832537, -93.1238"
79548,Rule,TX,33.067644,-99.94686,-6,1,"33.067644, -99.94686"
65535,Leasburg,MO,38.091816,-91.29375,-6,1,"38.091816, -91.29375"
66537,Scranton,KS,38.771467,-95.72799,-6,1,"38.771467, -95.72799"
62527,Decatur,IL,39.853981,-88.981511,-6,1,"39.853981, -88.981511"
72125,Perry,AR,35.056424,-92.79432,-6,1,"35.056424, -92.79432"
74328,Colcord,OK,36.260756,-94.69267,-6,1,"36.260756, -94.69267"
76063,Mansfield,TX,32.57701,-97.13485,-6,1,"32.57701, -97.13485"
88535,El Paso,TX,31.694842,-106.299987,-7,1,"31.694842, -106.299987"
89013,Goldfield,NV,37.571495,-117.31507,-8,1,"37.571495, -117.31507"
91182,Pasadena,CA,33.786594,-118.298662,-8,1,"33.786594, -118.298662"
92101,San Diego,CA,32.719601,-117.16246,-8,1,"32.719601, -117.16246"
95973,Chico,CA,39.793465,-121.87946,-8,1,"39.793465, -121.87946"
97309,Salem,OR,44.984465,-122.457024,-8,1,"44.984465, -122.457024"
03431,Keene,NH,42.946418,-72.28616,-5,1,"42.946418, -72.28616"
05040,East Corinth,VT,44.070771,-72.21275,-5,1,"44.070771, -72.21275"
05677,Waterbury Center,VT,44.375144,-72.71362,-5,1,"44.375144, -72.71362"
01863,North Chelmsford,MA,42.634199,-71.39322,-5,1,"42.634199, -71.39322"
02035,Foxboro,MA,42.061427,-71.24232,-5,1,"42.061427, -71.24232"
02327,Bryantville,MA,42.040708,-70.827245,-5,1,"42.040708, -70.827245"
53020,Elkhart Lake,WI,43.85255,-88.01085,-6,1,"43.85255, -88.01085"
54143,Marinette,WI,45.092448,-87.64929,-6,1,"45.092448, -87.64929"
36901,Bellamy,AL,32.451618,-88.131,-6,1,"32.451618, -88.131"
47146,Mount Saint Francis,IN,38.298486,-85.896961,-5,1,"38.298486, -85.896961"
21651,Millington,MD,39.254014,-75.86239,-5,1,"39.254014, -75.86239"
23407,Mappsville,VA,37.848467,-75.55559,-5,1,"37.848467, -75.55559"
53534,Edgerton,WI,42.841688,-89.07223,-6,1,"42.841688, -89.07223"
54101,Abrams,WI,44.788898,-88.04535,-6,1,"44.788898, -88.04535"
49255,Montgomery,MI,41.776287,-84.8376,-5,1,"41.776287, -84.8376"
56371,Roscoe,MN,45.432316,-94.63552,-6,1,"45.432316, -94.63552"
72176,Ward,AR,35.008529,-91.92244,-6,1,"35.008529, -91.92244"
49431,Ludington,MI,43.967306,-86.43044,-5,1,"43.967306, -86.43044"
70459,Slidell,LA,30.42551,-89.881256,-6,1,"30.42551, -89.881256"
70803,Baton Rouge,LA,30.405002,-91.186834,-6,1,"30.405002, -91.186834"
71066,Powhatan,LA,31.874172,-93.19719,-6,1,"31.874172, -93.19719"
31012,Chester,GA,32.396381,-83.16892,-5,1,"32.396381, -83.16892"
31622,Alapaha,GA,31.379665,-83.21803,-5,1,"31.379665, -83.21803"
32359,Steinhatchee,FL,29.673459,-83.38416,-5,1,"29.673459, -83.38416"
33567,Plant City,FL,27.982949,-82.14539,-5,1,"27.982949, -82.14539"
38542,Allred,TN,36.323957,-85.20787,-6,1,"36.323957, -85.20787"
43938,Mingo Junction,OH,40.318569,-80.64172,-5,1,"40.318569, -80.64172"
36040,Hayneville,AL,32.182677,-86.66877,-6,1,"32.182677, -86.66877"
26438,Spelter,WV,39.346726,-80.31889,-5,1,"39.346726, -80.31889"
27876,Seaboard,NC,36.487125,-77.43618,-5,1,"36.487125, -77.43618"
27935,Eure,NC,36.440867,-76.86007,-5,1,"36.440867, -76.86007"
28032,Cramerton,NC,35.239702,-81.07753,-5,1,"35.239702, -81.07753"
41006,Butler,KY,38.796981,-84.33792,-5,1,"38.796981, -84.33792"
26133,Belleville,WV,39.122989,-81.68365,-5,1,"39.122989, -81.68365"
24966,Renick,WV,38.059474,-80.35569,-5,1,"38.059474, -80.35569"
06440,Hawleyville,CT,41.308873,-73.363661,-5,1,"41.308873, -73.363661"
53716,Madison,WI,43.065621,-89.32085,-6,1,"43.065621, -89.32085"
59214,Brockway,MT,47.274624,-105.84727,-7,1,"47.274624, -105.84727"
85278,Apache Junction,AZ,32.983653,-111.326045,-7,0,"32.983653, -111.326045"
74859,Okemah,OK,35.44116,-96.30798,-6,1,"35.44116, -96.30798"
13431,Poland,NY,43.21574,-75.08534,-5,1,"43.21574, -75.08534"
77414,Bay City,TX,28.945269,-95.9357,-6,1,"28.945269, -95.9357"
79160,Amarillo,TX,35.401475,-101.895089,-6,1,"35.401475, -101.895089"
77951,Bloomington,TX,28.642875,-96.89172,-6,1,"28.642875, -96.89172"
49740,Harbor Springs,MI,45.502308,-84.99025,-5,1,"45.502308, -84.99025"
78238,San Antonio,TX,29.479874,-98.61509,-6,1,"29.479874, -98.61509"
50122,Hubbard,IA,42.30884,-93.31162,-6,1,"42.30884, -93.31162"
79227,Crowell,TX,33.929907,-99.74194,-6,1,"33.929907, -99.74194"
27807,Bailey,NC,35.797988,-78.10641,-5,1,"35.797988, -78.10641"
59866,Saint Regis,MT,47.3245,-115.13788,-7,1,"47.3245, -115.13788"
04275,Roxbury,ME,44.727073,-70.6478,-5,1,"44.727073, -70.6478"
63556,Milan,MO,40.184189,-93.12043,-6,1,"40.184189, -93.12043"
05149,Ludlow,VT,43.416827,-72.70416,-5,1,"43.416827, -72.70416"
07028,Glen Ridge,NJ,40.80495,-74.2047,-5,1,"40.80495, -74.2047"
88113,Causey,NM,33.843464,-103.10002,-7,1,"33.843464, -103.10002"
74748,Kenefic,OK,34.163069,-96.47772,-6,1,"34.163069, -96.47772"
75411,Arthur City,TX,33.86751,-95.60594,-6,1,"33.86751, -95.60594"
72173,Vilonia,AR,35.102318,-92.22148,-6,1,"35.102318, -92.22148"
72462,Reyno,AR,36.362896,-90.75676,-6,1,"36.362896, -90.75676"
73002,Alex,OK,34.936221,-97.74453,-6,1,"34.936221, -97.74453"
73565,Ryan,OK,34.008894,-97.93581,-6,1,"34.008894, -97.93581"
74055,Owasso,OK,36.278298,-95.8305,-6,1,"36.278298, -95.8305"
83283,Thatcher,ID,42.344123,-111.67297,-7,1,"42.344123, -111.67297"
13674,Pierrepont Manor,NY,43.73345,-76.054313,-5,1,"43.73345, -76.054313"
14649,Rochester,NY,43.286024,-77.684264,-5,1,"43.286024, -77.684264"
14824,Cayuta,NY,42.265328,-76.71263,-5,1,"42.265328, -76.71263"
15548,Kantner,PA,40.101106,-78.938653,-5,1,"40.101106, -78.938653"
17268,Waynesboro,PA,39.766281,-77.57241,-5,1,"39.766281, -77.57241"
32409,Panama City,FL,30.330553,-85.65413,-6,1,"30.330553, -85.65413"
33445,Delray Beach,FL,26.459571,-80.10582,-5,1,"26.459571, -80.10582"
24245,Dungannon,VA,36.844539,-82.49147,-5,1,"36.844539, -82.49147"
24343,Hillsville,VA,36.750353,-80.68706,-5,1,"36.750353, -80.68706"
20330,Washington,DC,38.893311,-77.014647,-5,1,"38.893311, -77.014647"
08904,Highland Park,NJ,40.500254,-74.4257,-5,1,"40.500254, -74.4257"
29542,Floyd Dale,SC,34.425629,-79.352291,-5,1,"34.425629, -79.352291"
29593,Society Hill,SC,34.492154,-79.87045,-5,1,"34.492154, -79.87045"
12420,Cragsmoor,NY,41.674288,-74.37833,-5,1,"41.674288, -74.37833"
12873,Shushan,NY,43.11595,-73.31852,-5,1,"43.11595, -73.31852"
54519,Conover,WI,46.040996,-89.28591,-6,1,"46.040996, -89.28591"
54934,Eureka,WI,44.00443,-88.84108,-6,1,"44.00443, -88.84108"
55764,Marble,MN,47.319362,-93.30077,-6,1,"47.319362, -93.30077"
37412,Chattanooga,TN,34.996674,-85.23748,-5,1,"34.996674, -85.23748"
37829,Oakdale,TN,35.98291,-84.60149,-5,1,"35.98291, -84.60149"
38054,Millington,TN,35.334132,-89.870636,-6,1,"35.334132, -89.870636"
16603,Altoona,PA,40.50177,-78.410035,-5,1,"40.50177, -78.410035"
10108,New York,NY,40.780751,-73.977182,-5,1,"40.780751, -73.977182"
13492,Whitesboro,NY,43.11627,-75.31182,-5,1,"43.11627, -75.31182"
24658,Wolford,VA,37.287992,-82.027408,-5,1,"37.287992, -82.027408"
02147,Brookline Village,MA,42.180048,-71.08923,-5,1,"42.180048, -71.08923"
19549,Port Clinton,PA,40.580744,-76.02559,-5,1,"40.580744, -76.02559"
75218,Dallas,TX,32.842726,-96.69937,-6,1,"32.842726, -96.69937"
75372,Dallas,TX,32.767268,-96.777626,-6,1,"32.767268, -96.777626"
75599,Texarkana,TX,33.476552,-94.39495,-6,1,"33.476552, -94.39495"
76365,Henrietta,TX,33.761291,-98.19145,-6,1,"33.761291, -98.19145"
76654,Leroy,TX,31.553646,-97.203166,-6,1,"31.553646, -97.203166"
77506,Pasadena,TX,29.705678,-95.20216,-6,1,"29.705678, -95.20216"
80151,Englewood,CO,39.738752,-104.408349,-7,1,"39.738752, -104.408349"
64648,Jamesport,MO,39.977935,-93.80694,-6,1,"39.977935, -93.80694"
68355,Falls City,NE,40.097217,-95.58631,-6,1,"40.097217, -95.58631"
69037,Max,NE,40.142872,-101.40758,-7,1,"40.142872, -101.40758"
79032,Edmonson,TX,34.281443,-101.898,-6,1,"34.281443, -101.898"
70650,Lacassine,LA,30.235892,-92.91527,-6,1,"30.235892, -92.91527"
74036,Inola,OK,36.145085,-95.51443,-6,1,"36.145085, -95.51443"
74083,Wann,OK,36.935821,-95.78336,-6,1,"36.935821, -95.78336"
91346,Mission Hills,CA,33.786594,-118.298662,-8,1,"33.786594, -118.298662"
92590,Temecula,CA,33.479467,-117.20933,-8,1,"33.479467, -117.20933"
02813,Charlestown,RI,41.385256,-71.66813,-5,1,"41.385256, -71.66813"
05361,Whitingham,VT,42.782281,-72.86962,-5,1,"42.782281, -72.86962"
05848,Lower Waterford,VT,44.382103,-71.919518,-5,1,"44.382103, -71.919518"
07088,Vauxhall,NJ,40.718401,-74.28416,-5,1,"40.718401, -74.28416"
07099,Kearny,NJ,40.73276,-74.075485,-5,1,"40.73276, -74.075485"
07890,Branchville,NJ,41.12831,-74.678956,-5,1,"41.12831, -74.678956"
10112,New York,NY,40.759291,-73.97979,-5,1,"40.759291, -73.97979"
01602,Worcester,MA,42.272359,-71.84482,-5,1,"42.272359, -71.84482"
02157,Babson Park,MA,42.173933,-71.185494,-5,1,"42.173933, -71.185494"
02357,North Easton,MA,42.064499,-71.087091,-5,1,"42.064499, -71.087091"
65251,Fulton,MO,38.852436,-91.95808,-6,1,"38.852436, -91.95808"
59425,Conrad,MT,48.190331,-111.96872,-7,1,"48.190331, -111.96872"
51646,New Market,IA,40.732886,-94.88772,-6,1,"40.732886, -94.88772"
36449,Goodway,AL,31.529531,-87.345345,-6,1,"31.529531, -87.345345"
23889,Warfield,VA,36.912369,-77.75239,-5,1,"36.912369, -77.75239"
41091,Union,KY,38.930285,-84.71603,-5,1,"38.930285, -84.71603"
44854,New Washington,OH,40.954399,-82.85436,-5,1,"40.954399, -82.85436"
45613,Beaver,OH,39.015223,-82.84927,-5,1,"39.015223, -82.84927"
99651,Platinum,AK,59.00689,-161.81529,-9,1,"59.00689, -161.81529"
54538,Lac Du Flambeau,WI,45.964667,-89.90731,-6,1,"45.964667, -89.90731"
54951,Medina,WI,44.416326,-88.464873,-6,1,"44.416326, -88.464873"
56054,Lafayette,MN,44.431776,-94.37742,-6,1,"44.431776, -94.37742"
56759,Strathcona,MN,48.565391,-96.07014,-6,1,"48.565391, -96.07014"
62718,Springfield,IL,39.778044,-89.646555,-6,1,"39.778044, -89.646555"
64030,Grandview,MO,38.883548,-94.52503,-6,1,"38.883548, -94.52503"
48658,Standish,MI,43.985129,-83.93628,-5,1,"43.985129, -83.93628"
49795,Vanderbilt,MI,45.169729,-84.60248,-5,1,"45.169729, -84.60248"
41030,Crittenden,KY,38.788439,-84.602,-5,1,"38.788439, -84.602"
39159,Rolling Fork,MS,32.811181,-90.97713,-6,1,"32.811181, -90.97713"
40218,Louisville,KY,38.193769,-85.65733,-5,1,"38.193769, -85.65733"
40511,Lexington,KY,38.105283,-84.50775,-5,1,"38.105283, -84.50775"
54639,La Farge,WI,43.610629,-90.62108,-6,1,"43.610629, -90.62108"
87114,Albuquerque,NM,35.196446,-106.67336,-7,1,"35.196446, -106.67336"
87185,Albuquerque,NM,35.044339,-106.672872,-7,1,"35.044339, -106.672872"
97638,Silver Lake,OR,43.189402,-121.00466,-8,1,"43.189402, -121.00466"
98112,Seattle,WA,47.629653,-122.29752,-8,1,"47.629653, -122.29752"
98378,Retsil,WA,47.687971,-122.729304,-8,1,"47.687971, -122.729304"
98421,Tacoma,WA,47.250681,-122.41213,-8,1,"47.250681, -122.41213"
94002,Belmont,CA,37.516687,-122.29026,-8,1,"37.516687, -122.29026"
91328,Northridge,CA,33.786594,-118.298662,-8,1,"33.786594, -118.298662"
02881,Kingston,RI,41.481001,-71.52689,-5,1,"41.481001, -71.52689"
06820,Darien,CT,41.075663,-73.48294,-5,1,"41.075663, -73.48294"
07717,Avon By The Sea,NJ,40.191809,-74.01688,-5,1,"40.191809, -74.01688"
02130,Jamaica Plain,MA,42.309998,-71.11171,-5,1,"42.309998, -71.11171"
02172,Watertown,MA,42.372596,-71.177998,-5,1,"42.372596, -71.177998"
29623,Anderson,SC,34.438087,-82.835449,-5,1,"34.438087, -82.835449"
48115,Bridgewater,MI,42.160216,-83.911693,-5,1,"42.160216, -83.911693"
25541,Milton,WV,38.440316,-82.13535,-5,1,"38.440316, -82.13535"
22638,Winchester,VA,39.236944,-78.288465,-5,1,"39.236944, -78.288465"
36115,Montgomery,AL,32.404754,-86.24963,-6,1,"32.404754, -86.24963"
37807,Maynardville,TN,36.251265,-83.82558,-5,1,"36.251265, -83.82558"
37849,Powell,TN,36.044507,-84.04192,-5,1,"36.044507, -84.04192"
38333,Eva,TN,36.114049,-87.97808,-6,1,"36.114049, -87.97808"
18934,Mechanicsville,PA,40.349443,-75.067622,-5,1,"40.349443, -75.067622"
20137,Broad Run,VA,38.810629,-77.7057,-5,1,"38.810629, -77.7057"
23868,Lawrenceville,VA,36.722176,-77.81269,-5,1,"36.722176, -77.81269"
41263,Tutor Key,KY,37.8583,-82.7598,-5,1,"37.8583, -82.7598"
41520,Dorton,KY,37.279027,-82.57732,-5,1,"37.279027, -82.57732"
32410,Mexico Beach,FL,29.945008,-85.41461,-6,1,"29.945008, -85.41461"
32462,Vernon,FL,30.563809,-85.82357,-6,1,"30.563809, -85.82357"
32549,Fort Walton Beach,FL,30.661155,-86.594479,-6,1,"30.661155, -86.594479"
33178,Miami,FL,25.837696,-80.36947,-5,1,"25.837696, -80.36947"
40505,Lexington,KY,38.058477,-84.46109,-5,1,"38.058477, -84.46109"
51365,Wallingford,IA,43.309573,-94.74784,-6,1,"43.309573, -94.74784"
53545,Janesville,WI,42.69146,-89.04277,-6,1,"42.69146, -89.04277"
53953,Packwaukee,WI,43.765621,-89.45736,-6,1,"43.765621, -89.45736"
57653,Shadehill,SD,45.690446,-102.25384,-7,1,"45.690446, -102.25384"
58772,Portal,ND,48.973939,-102.60078,-6,1,"48.973939, -102.60078"
59311,Alzada,MT,45.189905,-104.38569,-7,1,"45.189905, -104.38569"
45121,Georgetown,OH,38.87752,-83.90215,-5,1,"38.87752, -83.90215"
46072,Tipton,IN,40.284041,-86.04681,-5,0,"40.284041, -86.04681"
47457,Scotland,IN,39.037144,-86.961577,-5,0,"39.037144, -86.961577"
66872,White City,KS,38.79144,-96.73809,-6,1,"38.79144, -96.73809"
67437,Downs,KS,39.50357,-98.55591,-6,1,"39.50357, -98.55591"
67734,Gem,KS,39.488765,-100.89755,-6,1,"39.488765, -100.89755"
68664,Snyder,NE,41.704483,-96.78794,-6,1,"41.704483, -96.78794"
62624,Browning,IL,40.153557,-90.35255,-6,1,"40.153557, -90.35255"
47814,Terre Haute,IN,39.433602,-87.410094,-5,0,"39.433602, -87.410094"
55177,Saint Paul,MN,45.005902,-93.105869,-6,1,"45.005902, -93.105869"
55357,Loretto,MN,45.088013,-93.65053,-6,1,"45.088013, -93.65053"
55363,Montrose,MN,45.046143,-93.92085,-6,1,"45.046143, -93.92085"
55364,Mound,MN,44.933712,-93.66038,-6,1,"44.933712, -93.66038"
55929,Dover,MN,43.975269,-92.14213,-6,1,"43.975269, -92.14213"
72901,Fort Smith,AR,35.373791,-94.41371,-6,1,"35.373791, -94.41371"
73749,Jet,OK,36.702485,-98.1728,-6,1,"36.702485, -98.1728"
75395,Dallas,TX,32.767268,-96.777626,-6,1,"32.767268, -96.777626"
75481,Sulphur Bluff,TX,33.323467,-95.39168,-6,1,"33.323467, -95.39168"
97286,Portland,OR,45.580557,-122.374776,-8,1,"45.580557, -122.374776"
32610,Gainesville,FL,29.681312,-82.353862,-5,1,"29.681312, -82.353862"
32664,McIntosh,FL,29.450353,-82.22069,-5,1,"29.450353, -82.22069"
33760,Clearwater,FL,27.90802,-82.71365,-5,1,"27.90802, -82.71365"
14263,Buffalo,NY,42.768413,-78.887094,-5,1,"42.768413, -78.887094"
01082,Ware,MA,42.270611,-72.26067,-5,1,"42.270611, -72.26067"
34488,Silver Springs,FL,29.198564,-81.92095,-5,1,"29.198564, -81.92095"
36314,Black,AL,31.013308,-85.75742,-6,1,"31.013308, -85.75742"
37354,Madisonville,TN,35.506259,-84.35738,-5,1,"35.506259, -84.35738"
38363,Parsons,TN,35.66088,-88.1184,-6,1,"35.66088, -88.1184"
97541,Trail,OR,42.713888,-122.7541,-8,1,"42.713888, -122.7541"
98060,Seattle,WA,47.432251,-121.803388,-8,1,"47.432251, -121.803388"
98526,Amanda Park,WA,47.463965,-124.02938,-8,1,"47.463965, -124.02938"
98819,Conconully,WA,48.559477,-119.75474,-8,1,"48.559477, -119.75474"
56255,Lucan,MN,44.397402,-95.42013,-6,1,"44.397402, -95.42013"
56310,Avon,MN,45.624705,-94.44973,-6,1,"45.624705, -94.44973"
57234,Estelline,SD,44.587419,-96.90648,-6,1,"44.587419, -96.90648"
59063,Park City,MT,45.622948,-108.96,-7,1,"45.622948, -108.96"
79068,Panhandle,TX,35.335288,-101.39752,-6,1,"35.335288, -101.39752"
93262,Sequoia National Park,CA,36.596251,-118.73425,-8,1,"36.596251, -118.73425"
87008,Cedar Crest,NM,35.136495,-106.37296,-7,1,"35.136495, -106.37296"
92031,Adelanto,CA,34.587473,-117.406293,-8,1,"34.587473, -117.406293"
92307,Apple Valley,CA,34.538622,-117.17729,-8,1,"34.538622, -117.17729"
92619,Irvine,CA,33.66985,-117.765939,-8,1,"33.66985, -117.765939"
66546,Wakarusa,KS,38.895185,-95.71995,-6,1,"38.895185, -95.71995"
67037,Derby,KS,37.557434,-97.25167,-6,1,"37.557434, -97.25167"
60114,Addison,IL,41.839679,-88.088716,-6,1,"41.839679, -88.088716"
50217,Paton,IA,42.17191,-94.25943,-6,1,"42.17191, -94.25943"
53026,Greenbush,WI,43.718294,-87.618716,-6,1,"43.718294, -87.618716"
56641,Federal Dam,MN,47.243893,-94.23203,-6,1,"47.243893, -94.23203"
57005,Brandon,SD,43.590014,-96.58362,-6,1,"43.590014, -96.58362"
63541,Glenwood,MO,40.513638,-92.60818,-6,1,"40.513638, -92.60818"
64142,Kansas City,MO,39.035038,-94.356728,-6,1,"39.035038, -94.356728"
64438,Darlington,MO,40.183995,-94.40163,-6,1,"40.183995, -94.40163"
72857,Plainview,AR,34.865448,-93.33057,-6,1,"34.865448, -93.33057"
70051,Garyville,LA,30.058276,-90.61738,-6,1,"30.058276, -90.61738"
99159,Odessa,WA,47.338736,-118.70235,-8,1,"47.338736, -118.70235"
92123,San Diego,CA,32.803799,-117.13595,-8,1,"32.803799, -117.13595"
57027,Fairview,SD,43.192357,-96.51982,-6,1,"43.192357, -96.51982"
57683,Orange,ND,45.984316,-102.101218,-7,1,"45.984316, -102.101218"
58047,Horace,ND,46.724294,-96.8728,-6,1,"46.724294, -96.8728"
58259,Michigan,ND,48.052404,-98.12379,-6,1,"48.052404, -98.12379"
74543,Finley,OK,34.373618,-95.43604,-6,1,"34.373618, -95.43604"
49969,Watersmeet,MI,46.258959,-89.26594,-6,1,"46.258959, -89.26594"
52626,Farmington,IA,40.655336,-91.72385,-6,1,"40.655336, -91.72385"
53964,Westfield,WI,43.907282,-89.49412,-6,1,"43.907282, -89.49412"
63031,Florissant,MO,38.8016,-90.33662,-6,1,"38.8016, -90.33662"
70774,Saint Amant,LA,30.212699,-90.81947,-6,1,"30.212699, -90.81947"
71922,Antoine,AR,34.033062,-93.42614,-6,1,"34.033062, -93.42614"
60505,Aurora,IL,41.756129,-88.29699,-6,1,"41.756129, -88.29699"
61731,Cropsey,IL,40.607615,-88.49,-6,1,"40.607615, -88.49"
61777,Wapella,IL,40.240627,-88.96635,-6,1,"40.240627, -88.96635"
81435,Telluride,CO,37.932874,-107.88874,-7,1,"37.932874, -107.88874"
78662,Red Rock,TX,29.950887,-97.42728,-6,1,"29.950887, -97.42728"
79339,Littlefield,TX,33.894823,-102.32282,-6,1,"33.894823, -102.32282"
79759,Notrees,TX,31.840191,-102.74709,-6,1,"31.840191, -102.74709"
96025,Dunsmuir,CA,41.221077,-122.28003,-8,1,"41.221077, -122.28003"
96706,Ewa Beach,HI,21.338055,-158.02499,-10,0,"21.338055, -158.02499"
89195,Las Vegas,NV,35.927901,-114.972061,-8,1,"35.927901, -114.972061"
93718,Fresno,CA,36.746375,-119.639658,-8,1,"36.746375, -119.639658"
92882,Corona,CA,33.866555,-117.59167,-8,1,"33.866555, -117.59167"
76264,Sadler,TX,33.748414,-96.83792,-6,1,"33.748414, -96.83792"
77504,Pasadena,TX,29.64878,-95.18813,-6,1,"29.64878, -95.18813"
99669,Soldotna,AK,60.489536,-151.02091,-9,1,"60.489536, -151.02091"
29211,Columbia,SC,34.096716,-80.922338,-5,1,"34.096716, -80.922338"
35646,Leighton,AL,34.660322,-87.53577,-6,1,"34.660322, -87.53577"
92341,Green Valley Lake,CA,34.241477,-117.07449,-8,1,"34.241477, -117.07449"
39041,Bolton,MS,32.39336,-90.47024,-6,1,"32.39336, -90.47024"
46777,Ossian,IN,40.880397,-85.15936,-5,0,"40.880397, -85.15936"
94950,Olema,CA,38.054433,-122.77762,-8,1,"38.054433, -122.77762"
95703,Applegate,CA,38.995732,-120.99703,-8,1,"38.995732, -120.99703"
97429,Days Creek,OR,42.971648,-123.06467,-8,1,"42.971648, -123.06467"
90601,Whittier,CA,34.002333,-118.03562,-8,1,"34.002333, -118.03562"
93549,Olancha,CA,36.228484,-117.97084,-8,1,"36.228484, -117.97084"
87005,Bluewater,NM,35.20912,-108.07182,-7,1,"35.20912, -108.07182"
87801,Socorro,NM,33.953237,-106.93722,-7,1,"33.953237, -106.93722"
88230,Dexter,NM,33.244151,-104.3334,-7,1,"33.244151, -104.3334"
98850,Rock Island,WA,47.360902,-120.11338,-8,1,"47.360902, -120.11338"
00624,Penuelas,PR,18.055399,-66.72602,-4,0,"18.055399, -66.72602"
55375,Saint Bonifacius,MN,44.906512,-93.7439,-6,1,"44.906512, -93.7439"
55434,Minneapolis,MN,45.164248,-93.2531,-6,1,"45.164248, -93.2531"
55569,Osseo,MN,45.015914,-93.47188,-6,1,"45.015914, -93.47188"
56331,Freeport,MN,45.67539,-94.67303,-6,1,"45.67539, -94.67303"
41607,Blue River,KY,37.617197,-82.85634,-5,1,"37.617197, -82.85634"
41647,McDowell,KY,37.449076,-82.7264,-5,1,"37.449076, -82.7264"
43216,Columbus,OH,39.969036,-83.011389,-5,1,"39.969036, -83.011389"
43903,Amsterdam,OH,40.469171,-80.93363,-5,1,"40.469171, -80.93363"
32739,Deltona,FL,29.022729,-81.172169,-5,1,"29.022729, -81.172169"
32808,Orlando,FL,28.576028,-81.44369,-5,1,"28.576028, -81.44369"
32966,Vero Beach,FL,27.645377,-80.51468,-5,1,"27.645377, -80.51468"
33634,Tampa,FL,28.005497,-82.54936,-5,1,"28.005497, -82.54936"
82052,Buford,WY,41.105595,-105.3549,-7,1,"41.105595, -105.3549"
82510,Arapahoe,WY,42.981091,-108.60194,-7,1,"42.981091, -108.60194"
64487,Skidmore,MO,40.30191,-95.09462,-6,1,"40.30191, -95.09462"
65623,Butterfield,MO,36.749457,-93.90647,-6,1,"36.749457, -93.90647"
66408,Bern,KS,39.949989,-95.96831,-6,1,"39.949989, -95.96831"
75859,Streetman,TX,31.889748,-96.25435,-6,1,"31.889748, -96.25435"
90721,Los Alamitos,CA,33.640302,-117.769442,-8,1,"33.640302, -117.769442"
92804,Anaheim,CA,33.818165,-117.97304,-8,1,"33.818165, -117.97304"
93306,Bakersfield,CA,35.396411,-118.92268,-8,1,"35.396411, -118.92268"
98588,Tahuya,WA,47.433993,-123.02078,-8,1,"47.433993, -123.02078"
87113,Albuquerque,NM,35.179635,-106.59384,-7,1,"35.179635, -106.59384"
87576,Trampas,NM,36.504515,-105.62924,-7,1,"36.504515, -105.62924"
89101,Las Vegas,NV,36.17022,-115.12785,-8,1,"36.17022, -115.12785"
89821,Crescent Valley,NV,40.450972,-116.51585,-8,1,"40.450972, -116.51585"
90280,South Gate,CA,33.944264,-118.1949,-8,1,"33.944264, -118.1949"
95823,Sacramento,CA,38.477508,-121.44561,-8,1,"38.477508, -121.44561"
97255,Portland,OR,45.580557,-122.374776,-8,1,"45.580557, -122.374776"
02880,Wakefield,RI,41.375317,-71.64393,-5,1,"41.375317, -71.64393"
06263,Rogers,CT,41.839051,-71.90634,-5,1,"41.839051, -71.90634"
31082,Sandersville,GA,32.984529,-82.8375,-5,1,"32.984529, -82.8375"
31763,Leesburg,GA,31.714526,-84.16931,-5,1,"31.714526, -84.16931"
32640,Hawthorne,FL,29.601599,-82.0309,-5,1,"29.601599, -82.0309"
24340,Glade Spring,VA,36.772376,-81.7742,-5,1,"36.772376, -81.7742"
24483,Vesuvius,VA,37.819652,-79.21508,-5,1,"37.819652, -79.21508"
24943,Grassy Meadows,WV,37.838288,-80.75393,-5,1,"37.838288, -80.75393"
20435,Washington,DC,38.899399,-77.040319,-5,1,"38.899399, -77.040319"
17577,Soudersburg,PA,40.0185,-76.297582,-5,1,"40.0185, -76.297582"
14816,Breesport,NY,42.177039,-76.73437,-5,1,"42.177039, -76.73437"
03087,Windham,NH,42.805194,-71.29878,-5,1,"42.805194, -71.29878"
94172,San Francisco,CA,37.784827,-122.727802,-8,1,"37.784827, -122.727802"
95932,Colusa,CA,39.254875,-122.04572,-8,1,"39.254875, -122.04572"
87035,Moriarty,NM,35.001195,-105.99524,-7,1,"35.001195, -105.99524"
96727,Honokaa,HI,20.089087,-155.51679,-10,0,"20.089087, -155.51679"
97473,Scottsburg,OR,43.669352,-123.8141,-8,1,"43.669352, -123.8141"
92222,Bard,CA,32.782242,-114.561905,-8,1,"32.782242, -114.561905"
98623,Husum,WA,45.807631,-121.487682,-8,1,"45.807631, -121.487682"
75391,Dallas,TX,32.767268,-96.777626,-6,1,"32.767268, -96.777626"
66514,Milford,KS,39.149612,-96.90611,-6,1,"39.149612, -96.90611"
64656,Ludlow,MO,39.671985,-93.67718,-6,1,"39.671985, -93.67718"
65085,Westphalia,MO,38.417602,-92.02791,-6,1,"38.417602, -92.02791"
85286,New River,AZ,33.850506,-112.05927,-7,0,"33.850506, -112.05927"
85325,Bouse,AZ,33.946064,-113.9537,-7,0,"33.946064, -113.9537"
77492,Katy,TX,29.83399,-95.434241,-6,1,"29.83399, -95.434241"
60542,North Aurora,IL,41.809387,-88.32931,-6,1,"41.809387, -88.32931"
61842,Farmer City,IL,40.251945,-88.65279,-6,1,"40.251945, -88.65279"
78266,San Antonio,TX,29.641132,-98.30856,-6,1,"29.641132, -98.30856"
78547,Garciasville,TX,26.321652,-98.69525,-6,1,"26.321652, -98.69525"
50614,Cedar Falls,IA,42.469768,-92.309475,-6,1,"42.469768, -92.309475"
79353,Pep,TX,33.783555,-102.59146,-6,1,"33.783555, -102.59146"
23269,Richmond,VA,37.524246,-77.493157,-5,1,"37.524246, -77.493157"
63079,Stanton,MO,38.274398,-91.085533,-6,1,"38.274398, -91.085533"
68522,Lincoln,NE,40.790601,-96.74974,-6,1,"40.790601, -96.74974"
38650,Myrtle,MS,34.536153,-89.13829,-6,1,"34.536153, -89.13829"
38862,Plantersville,MS,34.179513,-88.63454,-6,1,"34.179513, -88.63454"
93116,Goleta,CA,34.262834,-119.848555,-8,1,"34.262834, -119.848555"
56058,Le Sueur,MN,44.449976,-93.90513,-6,1,"44.449976, -93.90513"
37715,Clairfield,TN,36.567165,-83.94202,-5,1,"36.567165, -83.94202"
14471,Honeoye,NY,42.762059,-77.50488,-5,1,"42.762059, -77.50488"
14817,Brooktondale,NY,42.368,-76.35407,-5,1,"42.368, -76.35407"
30506,Gainesville,GA,34.346102,-83.901,-5,1,"34.346102, -83.901"
31058,Mauk,GA,32.498727,-84.42804,-5,1,"32.498727, -84.42804"
31620,Adel,GA,31.133004,-83.42736,-5,1,"31.133004, -83.42736"
32568,McDavid,FL,30.878449,-87.47861,-6,1,"30.878449, -87.47861"
33169,Miami,FL,25.94267,-80.21276,-5,1,"25.94267, -80.21276"
23874,Newsoms,VA,36.610636,-77.10269,-5,1,"36.610636, -77.10269"
24076,Claudville,VA,36.580514,-80.4332,-5,1,"36.580514, -80.4332"
28665,Purlear,NC,36.195632,-81.37303,-5,1,"36.195632, -81.37303"
30087,Stone Mountain,GA,33.817438,-84.13167,-5,1,"33.817438, -84.13167"
27416,Greensboro,NC,36.080707,-80.0244,-5,1,"36.080707, -80.0244"
27515,Chapel Hill,NC,36.05251,-79.107692,-5,1,"36.05251, -79.107692"
28073,Grover,NC,35.189591,-81.47928,-5,1,"35.189591, -81.47928"
12203,Albany,NY,42.678112,-73.82983,-5,1,"42.678112, -73.82983"
05495,Williston,VT,44.44524,-73.09917,-5,1,"44.44524, -73.09917"
06723,Waterbury,CT,41.365709,-72.927507,-5,1,"41.365709, -72.927507"
07034,Lake Hiawatha,NJ,40.881149,-74.38112,-5,1,"40.881149, -74.38112"
07601,Hackensack,NJ,40.888678,-74.0488,-5,1,"40.888678, -74.0488"
07880,Vienna,NJ,40.864844,-74.897002,-5,1,"40.864844, -74.897002"
01220,Adams,MA,42.619727,-73.11842,-5,1,"42.619727, -73.11842"
46660,South Bend,IN,41.596769,-86.292991,-5,0,"41.596769, -86.292991"
50587,Rinard,IA,42.339118,-94.488618,-6,1,"42.339118, -94.488618"
34446,Homosassa,FL,28.746912,-82.53331,-5,1,"28.746912, -82.53331"
35045,Clanton,AL,32.834501,-86.64355,-6,1,"32.834501, -86.64355"
36080,Titus,AL,32.691057,-86.29429,-6,1,"32.691057, -86.29429"
91743,Guasti,CA,34.066655,-117.58831,-8,1,"34.066655, -117.58831"
93040,Piru,CA,34.424363,-118.73908,-8,1,"34.424363, -118.73908"
95304,Banta,CA,37.889849,-121.253872,-8,1,"37.889849, -121.253872"
98642,Ridgefield,WA,45.795825,-122.69804,-8,1,"45.795825, -122.69804"
84628,Eureka,UT,39.855141,-112.14995,-7,1,"39.855141, -112.14995"
80160,Littleton,CO,39.738752,-104.408349,-7,1,"39.738752, -104.408349"
81231,Gunnison,CO,38.702309,-106.940201,-7,1,"38.702309, -106.940201"
96034,Gazelle,CA,41.441194,-122.64688,-8,1,"41.441194, -122.64688"
01522,Jefferson,MA,42.369658,-71.87418,-5,1,"42.369658, -71.87418"
02085,Foxborough,MA,42.075995,-71.286055,-5,1,"42.075995, -71.286055"
37838,Sewanee,TN,35.199411,-85.93221,-6,1,"35.199411, -85.93221"
37881,Thorn Hill,TN,36.407028,-83.34113,-5,1,"36.407028, -83.34113"
39747,Kilmichael,MS,33.413657,-89.56261,-6,1,"33.413657, -89.56261"
57792,White Owl,SD,44.562488,-102.41683,-7,1,"44.562488, -102.41683"
58451,Hurdsfield,ND,47.456626,-99.9372,-6,1,"47.456626, -99.9372"
59240,Glentana,MT,48.330241,-106.609665,-7,1,"48.330241, -106.609665"
54835,Exeland,WI,45.671767,-91.23317,-6,1,"45.671767, -91.23317"
55333,Franklin,MN,44.541889,-94.8735,-6,1,"44.541889, -94.8735"
55437,Minneapolis,MN,44.822764,-93.34422,-6,1,"44.822764, -93.34422"
43927,Fairpoint,OH,40.11761,-80.93763,-5,1,"40.11761, -80.93763"
45820,Cairo,OH,40.831339,-84.08602,-5,1,"40.831339, -84.08602"
43558,Swanton,OH,41.585948,-83.87384,-5,1,"41.585948, -83.87384"
60490,Bolingbrook,IL,41.684752,-88.14203,-6,1,"41.684752, -88.14203"
31821,Omaha,GA,32.1342,-84.98499,-5,1,"32.1342, -84.98499"
32722,Glenwood,FL,29.022729,-81.172169,-5,1,"29.022729, -81.172169"
21555,Oldtown,MD,39.579649,-78.55826,-5,1,"39.579649, -78.55826"
22548,Sharps,VA,37.825956,-76.70563,-5,1,"37.825956, -76.70563"
15074,Rochester,PA,40.708166,-80.2735,-5,1,"40.708166, -80.2735"
17122,Harrisburg,PA,40.249845,-76.871209,-5,1,"40.249845, -76.871209"
12957,Moira,NY,44.833996,-74.5716,-5,1,"44.833996, -74.5716"
13063,Fabius,NY,42.847248,-75.97818,-5,1,"42.847248, -75.97818"
25927,Stanaford,WV,37.748935,-81.224458,-5,1,"37.748935, -81.224458"
34215,Cortez,FL,27.469113,-82.68765,-5,1,"27.469113, -82.68765"
19406,King Of Prussia,PA,40.092941,-75.37525,-5,1,"40.092941, -75.37525"
28287,Charlotte,NC,35.26002,-80.804151,-5,1,"35.26002, -80.804151"
28296,Charlotte,NC,35.225242,-80.845843,-5,1,"35.225242, -80.845843"
28587,Vandemere,NC,35.191279,-76.660435,-5,1,"35.191279, -76.660435"
29551,Hartsville,SC,34.365898,-80.132418,-5,1,"34.365898, -80.132418"
29903,Beaufort,SC,32.443974,-80.735245,-5,1,"32.443974, -80.735245"
97017,Colton,OR,45.181819,-122.39802,-8,1,"45.181819, -122.39802"
99029,Reardan,WA,47.693129,-117.86164,-8,1,"47.693129, -117.86164"
17528,Goodville,PA,40.043523,-76.238766,-5,1,"40.043523, -76.238766"
18430,Herrick Center,PA,41.759285,-75.50111,-5,1,"41.759285, -75.50111"
19170,Philadelphia,PA,40.001811,-75.11787,-5,1,"40.001811, -75.11787"
33351,Fort Lauderdale,FL,26.179495,-80.27183,-5,1,"26.179495, -80.27183"
33503,Balm,FL,27.764761,-82.273409,-5,1,"27.764761, -82.273409"
34264,Oneco,FL,27.427213,-82.438689,-5,1,"27.427213, -82.438689"
35148,Sumiton,AL,33.753474,-87.04756,-6,1,"33.753474, -87.04756"
27587,Wake Forest,NC,35.97154,-78.52241,-5,1,"35.97154, -78.52241"
28266,Charlotte,NC,35.284459,-80.858155,-5,1,"35.284459, -80.858155"
07424,Little Falls,NJ,40.886628,-74.21405,-5,1,"40.886628, -74.21405"
08350,Richland,NJ,39.490774,-74.87045,-5,1,"39.490774, -74.87045"
01527,Millbury,MA,42.196144,-71.76272,-5,1,"42.196144, -71.76272"
72311,Aubrey,AR,34.719877,-90.89796,-6,1,"34.719877, -90.89796"
72367,Mellwood,AR,34.189902,-90.97694,-6,1,"34.189902, -90.97694"
72908,Fort Smith,AR,35.301623,-94.41283,-6,1,"35.301623, -94.41283"
50174,Murray,IA,41.039527,-93.95498,-6,1,"41.039527, -93.95498"
78376,Realitos,TX,27.363706,-98.56442,-6,1,"27.363706, -98.56442"
78962,Weimar,TX,29.698373,-96.75932,-6,1,"29.698373, -96.75932"
79184,Amarillo,TX,35.401475,-101.895089,-6,1,"35.401475, -101.895089"
92193,San Diego,CA,33.016928,-116.846046,-8,1,"33.016928, -116.846046"
88562,El Paso,TX,31.694842,-106.299987,-7,1,"31.694842, -106.299987"
95357,Modesto,CA,37.667196,-120.9061,-8,1,"37.667196, -120.9061"
95380,Turlock,CA,37.48858,-120.85196,-8,1,"37.48858, -120.85196"
95913,Artois,CA,39.633265,-122.21009,-8,1,"39.633265, -122.21009"
97064,Vernonia,OR,45.862577,-123.206,-8,1,"45.862577, -123.206"
76618,Richland,TX,31.930849,-96.429154,-6,1,"31.930849, -96.429154"
77292,Houston,TX,29.744341,-95.332598,-6,1,"29.744341, -95.332598"
84314,Honeyville,UT,41.644833,-112.09427,-7,1,"41.644833, -112.09427"
85026,Phoenix,AZ,33.276539,-112.18717,-7,0,"33.276539, -112.18717"
39443,Laurel,MS,31.719947,-89.11948,-6,1,"31.719947, -89.11948"
40121,Fort Knox,KY,37.895491,-85.9662,-5,1,"37.895491, -85.9662"
40589,Lexington,KY,38.028269,-84.471505,-5,1,"38.028269, -84.471505"
66619,Topeka,KS,38.946977,-95.6938,-6,1,"38.946977, -95.6938"
77043,Houston,TX,29.802473,-95.5618,-6,1,"29.802473, -95.5618"
77542,Freeport,TX,29.183991,-95.465083,-6,1,"29.183991, -95.465083"
80802,Arapahoe,CO,38.834807,-102.1746,-7,1,"38.834807, -102.1746"
85703,Tucson,AZ,31.970131,-111.890713,-7,0,"31.970131, -111.890713"
60645,Chicago,IL,42.008956,-87.69634,-6,1,"42.008956, -87.69634"
59406,Great Falls,MT,47.619998,-111.239305,-7,1,"47.619998, -111.239305"
62627,Chandlerville,IL,40.051603,-90.14057,-6,1,"40.051603, -90.14057"
63126,Saint Louis,MO,38.552303,-90.37921,-6,1,"38.552303, -90.37921"
72677,Summit,AR,36.255295,-92.68844,-6,1,"36.255295, -92.68844"
73111,Oklahoma City,OK,35.504109,-97.47889,-6,1,"35.504109, -97.47889"
73558,Meers,OK,34.630879,-98.457646,-6,1,"34.630879, -98.457646"
23138,Port Haywood,VA,37.366838,-76.29577,-5,1,"37.366838, -76.29577"
24873,Paynesville,WV,37.357831,-81.89583,-5,1,"37.357831, -81.89583"
25244,Gay,WV,38.770723,-81.55043,-5,1,"38.770723, -81.55043"
13681,Richville,NY,44.414762,-75.37897,-5,1,"44.414762, -75.37897"
14445,East Rochester,NY,43.111663,-77.48709,-5,1,"43.111663, -77.48709"
32781,Titusville,FL,28.306726,-80.686159,-5,1,"28.306726, -80.686159"
22432,Burgess,VA,37.860549,-76.35637,-5,1,"37.860549, -76.35637"
07901,Summit,NJ,40.714501,-74.3633,-5,1,"40.714501, -74.3633"
08757,Toms River,NJ,39.975967,-74.25296,-5,1,"39.975967, -74.25296"
10952,Monsey,NY,41.116162,-74.07556,-5,1,"41.116162, -74.07556"
18641,Pittston,PA,41.333035,-75.74189,-5,1,"41.333035, -75.74189"
19710,Montchanin,DE,39.788562,-75.58881,-5,1,"39.788562, -75.58881"
28697,Wilkesboro,NC,36.136991,-81.17462,-5,1,"36.136991, -81.17462"
29933,Miley,SC,32.788773,-81.126913,-5,1,"32.788773, -81.126913"
12848,Middle Falls,NY,43.100123,-73.524554,-5,1,"43.100123, -73.524554"
13107,Maple View,NY,43.457798,-76.153442,-5,1,"43.457798, -76.153442"
51549,Macedonia,IA,41.182061,-95.44357,-6,1,"41.182061, -95.44357"
53044,Kohler,WI,43.740794,-87.78303,-6,1,"43.740794, -87.78303"
54816,Benoit,WI,46.682796,-91.143254,-6,1,"46.682796, -91.143254"
55322,Cologne,MN,44.768762,-93.77839,-6,1,"44.768762, -93.77839"
39169,Tchula,MS,33.136434,-90.27065,-6,1,"33.136434, -90.27065"
10463,Bronx,NY,40.881086,-73.90749,-5,1,"40.881086, -73.90749"
13112,Memphis,NY,43.105771,-76.41482,-5,1,"43.105771, -76.41482"
16260,Vowinckel,PA,41.41229,-79.22805,-5,1,"41.41229, -79.22805"
17519,East Earl,PA,40.141301,-76.0227,-5,1,"40.141301, -76.0227"
76010,Arlington,TX,32.723382,-97.08498,-6,1,"32.723382, -97.08498"
77536,Deer Park,TX,29.687657,-95.1201,-6,1,"29.687657, -95.1201"
77538,Devers,TX,29.981421,-94.55067,-6,1,"29.981421, -94.55067"
67901,Liberal,KS,37.067979,-100.92813,-6,1,"37.067979, -100.92813"
75203,Dallas,TX,32.745831,-96.80672,-6,1,"32.745831, -96.80672"
62664,Mason City,IL,40.200537,-89.70427,-6,1,"40.200537, -89.70427"
62838,Farina,IL,38.857185,-88.7591,-6,1,"38.857185, -88.7591"
65557,Roby,MO,37.508599,-92.09108,-6,1,"37.508599, -92.09108"
29074,Liberty Hill,SC,34.450789,-80.79844,-5,1,"34.450789, -80.79844"
29228,Columbia,SC,33.925183,-81.248345,-5,1,"33.925183, -81.248345"
54411,Athens,WI,45.040345,-90.01829,-6,1,"45.040345, -90.01829"
18976,Warrington,PA,40.240295,-75.13458,-5,1,"40.240295, -75.13458"
20416,Washington,DC,38.893311,-77.014647,-5,1,"38.893311, -77.014647"
21005,Aberdeen Proving Ground,MD,39.473451,-76.14083,-5,1,"39.473451, -76.14083"
50571,Palmer,IA,42.638478,-94.58979,-6,1,"42.638478, -94.58979"
85746,Tucson,AZ,32.126223,-111.04599,-7,0,"32.126223, -111.04599"
96089,Shasta Lake,CA,40.657893,-122.427333,-8,1,"40.657893, -122.427333"
78231,San Antonio,TX,29.574677,-98.53946,-6,1,"29.574677, -98.53946"
78339,Banquete,TX,27.807025,-97.79801,-6,1,"27.807025, -97.79801"
87571,Taos,NM,36.414942,-105.5808,-7,1,"36.414942, -105.5808"
91505,Burbank,CA,34.166906,-118.34366,-8,1,"34.166906, -118.34366"
92584,Menifee,CA,33.66035,-117.18987,-8,1,"33.66035, -117.18987"
14867,Newfield,NY,42.354851,-76.60338,-5,1,"42.354851, -76.60338"
14869,Odessa,NY,42.341316,-76.77926,-5,1,"42.341316, -76.77926"
15753,La Jose,PA,40.801942,-78.66543,-5,1,"40.801942, -78.66543"
16427,Mill Village,PA,41.87504,-79.96986,-5,1,"41.87504, -79.96986"
16865,Pennsylvania Furnace,PA,40.722897,-77.96941,-5,1,"40.722897, -77.96941"
20875,Germantown,MD,39.143979,-77.207617,-5,1,"39.143979, -77.207617"
23803,Petersburg,VA,37.21695,-77.43063,-5,1,"37.21695, -77.43063"
03819,Danville,NH,42.927682,-71.12034,-5,1,"42.927682, -71.12034"
12466,Port Ewen,NY,41.905004,-73.97957,-5,1,"41.905004, -73.97957"
13418,North Brookfield,NY,42.852808,-75.39938,-5,1,"42.852808, -75.39938"
10055,New York,NY,40.780751,-73.977182,-5,1,"40.780751, -73.977182"
18360,Stroudsburg,PA,40.98314,-75.26026,-5,1,"40.98314, -75.26026"
00929,San Juan,PR,18.410462,-66.060533,-4,0,"18.410462, -66.060533"
30175,Talking Rock,GA,34.537611,-84.51135,-5,1,"34.537611, -84.51135"
26334,Brownton,WV,39.220701,-80.15881,-5,1,"39.220701, -80.15881"
25550,Point Pleasant,WV,38.87018,-82.10751,-5,1,"38.87018, -82.10751"
43005,Bladensburg,OH,40.285043,-82.28218,-5,1,"40.285043, -82.28218"
43044,Mechanicsburg,OH,40.052907,-83.57223,-5,1,"40.052907, -83.57223"
95421,Cazadero,CA,38.562843,-123.16785,-8,1,"38.562843, -123.16785"
95840,Sacramento,CA,38.377411,-121.444429,-8,1,"38.377411, -121.444429"
96751,Kealia,HI,22.111837,-159.31283,-10,0,"22.111837, -159.31283"
98333,Fox Island,WA,47.244053,-122.6199,-8,1,"47.244053, -122.6199"
80801,Anton,CO,39.727493,-103.10362,-7,1,"39.727493, -103.10362"
82725,Recluse,WY,44.876211,-105.74228,-7,1,"44.876211, -105.74228"
83708,Boise,ID,43.459855,-116.243984,-7,1,"43.459855, -116.243984"
74836,Connerville,OK,34.451503,-96.63092,-6,1,"34.451503, -96.63092"
74955,Sallisaw,OK,35.467031,-94.78647,-6,1,"35.467031, -94.78647"
76861,Miles,TX,31.58901,-100.1911,-6,1,"31.58901, -100.1911"
66039,Kincaid,KS,38.088951,-95.17473,-6,1,"38.088951, -95.17473"
67452,Hunter,KS,39.229204,-98.38455,-6,1,"39.229204, -98.38455"
68771,Randolph,NE,42.377338,-97.35618,-6,1,"42.377338, -97.35618"
68815,Arcadia,NE,41.420141,-99.1444,-6,1,"41.420141, -99.1444"
68978,Superior,NE,40.03686,-98.07828,-6,1,"40.03686, -98.07828"
56438,Browerville,MN,46.149276,-94.83088,-6,1,"46.149276, -94.83088"
58482,Steele,ND,46.862714,-99.9205,-6,1,"46.862714, -99.9205"
59071,Roscoe,MT,45.343978,-109.50168,-7,1,"45.343978, -109.50168"
59929,Proctor,MT,47.923911,-114.37322,-7,1,"47.923911, -114.37322"
60469,Posen,IL,41.628034,-87.68694,-6,1,"41.628034, -87.68694"
51008,Brunsville,IA,42.809286,-96.2687,-6,1,"42.809286, -96.2687"
62935,Galatia,IL,37.836537,-88.62298,-6,1,"37.836537, -88.62298"
64688,Wheeling,MO,39.808311,-93.37642,-6,1,"39.808311, -93.37642"
45269,Cincinnati,OH,39.166759,-84.53822,-5,1,"39.166759, -84.53822"
47032,Moores Hill,IN,39.075691,-85.06057,-5,0,"39.075691, -85.06057"
70591,Welsh,LA,30.246368,-92.83199,-6,1,"30.246368, -92.83199"
55708,Biwabik,MN,47.533314,-92.34084,-6,1,"47.533314, -92.34084"
60511,Big Rock,IL,41.75537,-88.54865,-6,1,"41.75537, -88.54865"
61535,Groveland,IL,40.590353,-89.54053,-6,1,"40.590353, -89.54053"
28816,Asheville,NC,35.620335,-82.528558,-5,1,"35.620335, -82.528558"
29669,Pelzer,SC,34.646501,-82.44077,-5,1,"34.646501, -82.44077"
41736,Dice,KY,37.370521,-83.23714,-5,1,"37.370521, -83.23714"
41843,Pine Top,KY,37.273854,-82.86011,-5,1,"37.273854, -82.86011"
34136,Bonita Springs,FL,26.552895,-81.94861,-5,1,"26.552895, -81.94861"
34478,Ocala,FL,29.187178,-82.112278,-5,1,"29.187178, -82.112278"
37922,Knoxville,TN,35.875925,-84.12608,-5,1,"35.875925, -84.12608"
37929,Knoxville,TN,35.922421,-83.795492,-5,1,"35.922421, -83.795492"
39324,Clara,MS,31.593682,-88.704829,-6,1,"31.593682, -88.704829"
39404,Hattiesburg,MS,31.172142,-89.294772,-6,1,"31.172142, -89.294772"
39470,Poplarville,MS,30.810936,-89.56435,-6,1,"30.810936, -89.56435"
40550,Lexington,KY,38.028269,-84.471505,-5,1,"38.028269, -84.471505"
40746,London,KY,37.137615,-84.115617,-5,1,"37.137615, -84.115617"
23242,Richmond,VA,37.531296,-77.416103,-5,1,"37.531296, -77.416103"
28231,Charlotte,NC,35.26002,-80.804151,-5,1,"35.26002, -80.804151"
25262,Millwood,WV,38.906099,-81.83274,-5,1,"38.906099, -81.83274"
25825,Cool Ridge,WV,37.648813,-81.11241,-5,1,"37.648813, -81.11241"
32343,Midway,FL,30.494878,-84.46259,-5,1,"30.494878, -84.46259"
33058,Lake Lucerne,FL,25.968737,-80.262604,-5,1,"25.968737, -80.262604"
33769,Clearwater,FL,27.891809,-82.724763,-5,1,"27.891809, -82.724763"
73050,Langston,OK,35.941421,-97.25495,-6,1,"35.941421, -97.25495"
74563,Red Oak,OK,34.948771,-95.1037,-6,1,"34.948771, -95.1037"
80930,Colorado Springs,CO,38.811434,-104.50403,-7,1,"38.811434, -104.50403"
81601,Glenwood Springs,CO,39.533318,-107.32107,-7,1,"39.533318, -107.32107"
83285,Wayan,ID,43.027278,-111.22042,-7,1,"43.027278, -111.22042"
83405,Idaho Falls,ID,43.323306,-111.782152,-7,1,"43.323306, -111.782152"
85608,Douglas,AZ,31.569536,-109.23407,-7,0,"31.569536, -109.23407"
94299,Sacramento,CA,38.377411,-121.444429,-8,1,"38.377411, -121.444429"
95076,Watsonville,CA,36.922902,-121.77224,-8,1,"36.922902, -121.77224"
95196,San Jose,CA,37.189396,-121.705327,-8,1,"37.189396, -121.705327"
95543,Gasquet,CA,41.888557,-123.80079,-8,1,"41.888557, -123.80079"
15965,Wilmore,PA,40.388921,-78.720134,-5,1,"40.388921, -78.720134"
16140,New Bedford,PA,41.098098,-80.50393,-5,1,"41.098098, -80.50393"
17332,Hanover,PA,39.775037,-76.735116,-5,1,"39.775037, -76.735116"
05653,Eden Mills,VT,44.711083,-72.50846,-5,1,"44.711083, -72.50846"
07885,Wharton,NJ,40.913298,-74.58246,-5,1,"40.913298, -74.58246"
08252,Whitesboro,NJ,39.037404,-74.85749,-5,1,"39.037404, -74.85749"
10941,Middletown,NY,41.478028,-74.35844,-5,1,"41.478028, -74.35844"
36420,Andalusia,AL,31.279043,-86.48699,-6,1,"31.279043, -86.48699"
36559,Montrose,AL,30.564701,-87.90216,-6,1,"30.564701, -87.90216"
36913,Melvin,AL,32.004227,-88.200738,-6,1,"32.004227, -88.200738"
37641,Chuckey,TN,36.21503,-82.6744,-5,1,"36.21503, -82.6744"
46150,Manilla,IN,39.563815,-85.61239,-5,0,"39.563815, -85.61239"
46173,Rushville,IN,39.614803,-85.43834,-5,0,"39.614803, -85.43834"
79947,El Paso,TX,31.694842,-106.299987,-7,1,"31.694842, -106.299987"
80061,Westminster,CO,39.862286,-105.072049,-7,1,"39.862286, -105.072049"
62373,Sutter,IL,40.240004,-91.35197,-6,1,"40.240004, -91.35197"
71866,Winthrop,AR,33.865609,-94.38408,-6,1,"33.865609, -94.38408"
71932,Board Camp,AR,34.537164,-94.0972,-6,1,"34.537164, -94.0972"
70737,Gonzales,LA,30.229237,-90.92251,-6,1,"30.229237, -90.92251"
99695,Anchorage,AK,61.402544,-150.57485,-9,1,"61.402544, -150.57485"
06432,Fairfield,CT,41.189646,-73.23576,-5,1,"41.189646, -73.23576"
07731,Howell,NJ,40.146597,-74.20815,-5,1,"40.146597, -74.20815"
11434,Jamaica,NY,40.674888,-73.7727,-5,1,"40.674888, -73.7727"
12526,Germantown,NY,42.123977,-73.86199,-5,1,"42.123977, -73.86199"
17070,New Cumberland,PA,40.22004,-76.86849,-5,1,"40.22004, -76.86849"
17101,Harrisburg,PA,40.261839,-76.88279,-5,1,"40.261839, -76.88279"
00635,Ceiba,PR,18.262902,-65.646529,-4,0,"18.262902, -65.646529"
00907,San Juan,PR,18.451131,-66.07798,-4,0,"18.451131, -66.07798"
01542,Rochdale,MA,42.194793,-71.90651,-5,1,"42.194793, -71.90651"
39426,Carriere,MS,30.641521,-89.65929,-6,1,"30.641521, -89.65929"
39743,Crawford,MS,33.313523,-88.62721,-6,1,"33.313523, -88.62721"
28226,Charlotte,NC,35.107804,-80.82139,-5,1,"35.107804, -80.82139"
33159,Miami,FL,25.558428,-80.458168,-5,1,"25.558428, -80.458168"
40695,Middlesborough,KY,36.608426,-83.731809,-5,1,"36.608426, -83.731809"
49628,Elberta,MI,44.617592,-86.22663,-5,1,"44.617592, -86.22663"
49896,Wilson,MI,45.685664,-87.37748,-6,1,"45.685664, -87.37748"
50845,Diagonal,IA,40.814077,-94.33601,-6,1,"40.814077, -94.33601"
68336,Davey,NE,40.965773,-96.67667,-6,1,"40.965773, -96.67667"
62561,Riverton,IL,39.85973,-89.52972,-6,1,"39.85973, -89.52972"
56258,Marshall,MN,44.446885,-95.77281,-6,1,"44.446885, -95.77281"
57324,Cavour,SD,44.305089,-98.04565,-6,1,"44.305089, -98.04565"
58631,Glen Ullin,ND,46.759443,-101.83368,-6,1,"46.759443, -101.83368"
60102,Algonquin,IL,42.17315,-88.31849,-6,1,"42.17315, -88.31849"
60419,Dolton,IL,41.626839,-87.59865,-6,1,"41.626839, -87.59865"
60458,Justice,IL,41.746432,-87.83557,-6,1,"41.746432, -87.83557"
61272,New Boston,IL,41.223984,-91.0123,-6,1,"41.223984, -91.0123"
62048,Hartford,IL,38.833898,-90.09533,-6,1,"38.833898, -90.09533"
48210,Detroit,MI,42.338137,-83.12785,-5,1,"42.338137, -83.12785"
49103,Berrien Springs,MI,41.944691,-86.34979,-5,1,"41.944691, -86.34979"
49250,Jonesville,MI,42.018585,-84.64548,-5,1,"42.018585, -84.64548"
71034,Hall Summit,LA,32.176112,-93.30398,-6,1,"32.176112, -93.30398"
71331,Effie,LA,31.21968,-92.07345,-6,1,"31.21968, -92.07345"
71758,Mount Holly,AR,33.325889,-92.90485,-6,1,"33.325889, -92.90485"
55744,Grand Rapids,MN,47.243062,-93.52599,-6,1,"47.243062, -93.52599"
55815,Duluth,MN,47.640367,-92.442797,-6,1,"47.640367, -92.442797"
72769,Summers,AR,36.027493,-94.50146,-6,1,"36.027493, -94.50146"
75689,Selman City,TX,32.1826,-94.935456,-6,1,"32.1826, -94.935456"
55066,Red Wing,MN,44.539036,-92.53637,-6,1,"44.539036, -92.53637"
55067,Rock Creek,MN,46.074687,-92.718004,-6,1,"46.074687, -92.718004"
55386,Victoria,MN,44.858595,-93.66341,-6,1,"44.858595, -93.66341"
56435,Backus,MN,46.823666,-94.50471,-6,1,"46.823666, -94.50471"
55780,Sawyer,MN,46.670691,-92.69235,-6,1,"46.670691, -92.69235"
55971,Rushford,MN,43.80784,-91.75117,-6,1,"43.80784, -91.75117"
36509,Bayou La Batre,AL,30.401384,-88.24671,-6,1,"30.401384, -88.24671"
40939,Fourmile,KY,36.871254,-83.829985,-5,1,"36.871254, -83.829985"
33069,Pompano Beach,FL,26.22876,-80.15816,-5,1,"26.22876, -80.15816"
45423,Dayton,OH,39.750471,-84.268593,-5,1,"39.750471, -84.268593"
46933,Gas City,IN,40.48684,-85.60772,-5,0,"40.48684, -85.60772"
47348,Hartford City,IN,40.449883,-85.36442,-5,0,"40.449883, -85.36442"
41649,Martin,KY,37.568873,-82.75937,-5,1,"37.568873, -82.75937"
48201,Detroit,MI,42.343787,-83.05879,-5,1,"42.343787, -83.05879"
48852,Mcbrides,MI,43.355304,-85.04326,-5,1,"43.355304, -85.04326"
14092,Lewiston,NY,43.169055,-79.02426,-5,1,"43.169055, -79.02426"
16033,Evans City,PA,40.789672,-80.04848,-5,1,"40.789672, -80.04848"
17221,Fannettsburg,PA,40.0724,-77.81148,-5,1,"40.0724, -77.81148"
17366,Windsor,PA,39.92741,-76.56268,-5,1,"39.92741, -76.56268"
04693,Winter Harbor,ME,44.384841,-68.09458,-5,1,"44.384841, -68.09458"
23709,Portsmouth,VA,36.868553,-76.355165,-5,1,"36.868553, -76.355165"
25540,Midkiff,WV,38.159971,-82.12506,-5,1,"38.159971, -82.12506"
25847,Glen Morgan,WV,37.72329,-81.17444,-5,1,"37.72329, -81.17444"
20135,Bluemont,VA,39.080229,-77.87192,-5,1,"39.080229, -77.87192"
20623,Cheltenham,MD,38.748872,-76.83075,-5,1,"38.748872, -76.83075"
22314,Alexandria,VA,38.806163,-77.05139,-5,1,"38.806163, -77.05139"
19603,Reading,PA,40.388442,-75.963055,-5,1,"40.388442, -75.963055"
58123,Fargo,ND,46.934596,-97.229718,-6,1,"46.934596, -97.229718"
33147,Miami,FL,25.850124,-80.23773,-5,1,"25.850124, -80.23773"
33875,Sebring,FL,27.430819,-81.463297,-5,1,"27.430819, -81.463297"
34140,Goodland,FL,26.14326,-81.389124,-5,1,"26.14326, -81.389124"
34168,Chokoloskee,FL,25.81528,-81.359902,-5,1,"25.81528, -81.359902"
42720,Cane Valley,KY,37.121145,-85.370926,-6,1,"37.121145, -85.370926"
46345,Kingsbury,IN,41.526628,-86.70041,-6,1,"41.526628, -86.70041"
46524,Etna Green,IN,41.291767,-86.03216,-5,0,"41.291767, -86.03216"
47137,Leavenworth,IN,38.200101,-86.36988,-5,0,"38.200101, -86.36988"
47718,Jackson,IN,38.420839,-86.570962,-5,0,"38.420839, -86.570962"
48009,Birmingham,MI,42.544084,-83.21527,-5,1,"42.544084, -83.21527"
48205,Detroit,MI,42.433703,-82.98068,-5,1,"42.433703, -82.98068"
49508,Grand Rapids,MI,42.876661,-85.62856,-5,1,"42.876661, -85.62856"
13210,Syracuse,NY,43.037166,-76.12653,-5,1,"43.037166, -76.12653"
32169,New Smyrna Beach,FL,28.998887,-80.87561,-5,1,"28.998887, -80.87561"
23347,Eastville,VA,37.353286,-75.94203,-5,1,"37.353286, -75.94203"
23433,Suffolk,VA,36.906805,-76.49899,-5,1,"36.906805, -76.49899"
12412,Boiceville,NY,42.001351,-74.2619,-5,1,"42.001351, -74.2619"
29018,Bowman,SC,33.354403,-80.65134,-5,1,"33.354403, -80.65134"
20542,Washington,DC,38.940761,-77.028348,-5,1,"38.940761, -77.028348"
91915,Chula Vista,CA,32.638072,-116.95195,-8,1,"32.638072, -116.95195"
93706,Fresno,CA,36.691036,-119.83321,-8,1,"36.691036, -119.83321"
88120,Grady,NM,34.865507,-103.40619,-7,1,"34.865507, -103.40619"
90242,Downey,CA,33.92018,-118.14291,-8,1,"33.92018, -118.14291"
94953,Petaluma,CA,38.463088,-122.989975,-8,1,"38.463088, -122.989975"
95382,Turlock,CA,37.523901,-120.8516,-8,1,"37.523901, -120.8516"
85309,Luke AFB,AZ,33.533985,-112.37688,-7,0,"33.533985, -112.37688"
97520,Ashland,OR,42.169751,-122.61772,-8,1,"42.169751, -122.61772"
98675,Yacolt,WA,45.843674,-122.39221,-8,1,"45.843674, -122.39221"
08270,Woodbine,NJ,39.275059,-74.80041,-5,1,"39.275059, -74.80041"
11507,Albertson,NY,40.769942,-73.65004,-5,1,"40.769942, -73.65004"
03766,Lebanon,NH,43.642945,-72.24403,-5,1,"43.642945, -72.24403"
04979,Solon,ME,44.940536,-69.80759,-5,1,"44.940536, -69.80759"
00683,San German,PR,18.092807,-67.04524,-4,0,"18.092807, -67.04524"
01255,Sandisfield,MA,42.088973,-73.12444,-5,1,"42.088973, -73.12444"
36876,Uniontown,AL,32.454371,-87.519156,-6,1,"32.454371, -87.519156"
37366,Pelham,TN,35.304582,-85.85456,-6,1,"35.304582, -85.85456"
22212,Arlington,VA,38.880811,-77.11295,-5,1,"38.880811, -77.11295"
23845,Ebony,VA,36.554164,-78.01408,-5,1,"36.554164, -78.01408"
21155,Upperco,MD,39.566103,-76.82125,-5,1,"39.566103, -76.82125"
29067,Kershaw,SC,34.545825,-80.54807,-5,1,"34.545825, -80.54807"
29554,Hemingway,SC,33.71239,-79.40387,-5,1,"33.71239, -79.40387"
78217,San Antonio,TX,29.543865,-98.41755,-6,1,"29.543865, -98.41755"
79452,Lubbock,TX,33.610018,-101.821292,-6,1,"33.610018, -101.821292"
79499,Lubbock,TX,33.610018,-101.821292,-6,1,"33.610018, -101.821292"
80469,Phippsburg,CO,40.218412,-106.94494,-7,1,"40.218412, -106.94494"
72435,Knobel,AR,36.315305,-90.57906,-6,1,"36.315305, -90.57906"
73023,Chickasha,OK,35.031247,-97.881959,-6,1,"35.031247, -97.881959"
90054,Los Angeles,CA,33.786594,-118.298662,-8,1,"33.786594, -118.298662"
99363,Wallula,WA,46.059013,-118.88468,-8,1,"46.059013, -118.88468"
91756,Monterey Park,CA,33.786594,-118.298662,-8,1,"33.786594, -118.298662"
93726,Fresno,CA,36.795249,-119.76293,-8,1,"36.795249, -119.76293"
93779,Fresno,CA,36.746375,-119.639658,-8,1,"36.746375, -119.639658"
94104,San Francisco,CA,37.791728,-122.4019,-8,1,"37.791728, -122.4019"
75266,Dallas,TX,32.767268,-96.777626,-6,1,"32.767268, -96.777626"
84779,Virgin,UT,37.294867,-113.10279,-7,1,"37.294867, -113.10279"
76864,Mullin,TX,31.561427,-98.73632,-6,1,"31.561427, -98.73632"
77341,Huntsville,TX,30.714476,-95.54977,-6,1,"30.714476, -95.54977"
77619,Groves,TX,29.947563,-93.91857,-6,1,"29.947563, -93.91857"
42757,Magnolia,KY,37.415382,-85.71597,-6,1,"37.415382, -85.71597"
63116,Saint Louis,MO,38.580552,-90.26307,-6,1,"38.580552, -90.26307"
54660,Tomah,WI,43.984412,-90.48416,-6,1,"43.984412, -90.48416"
56013,Blue Earth,MN,43.630763,-94.10129,-6,1,"43.630763, -94.10129"
56591,White Earth,MN,46.933961,-95.678375,-6,1,"46.933961, -95.678375"
57438,Faulkton,SD,45.06623,-99.1345,-6,1,"45.06623, -99.1345"
46206,Indianapolis,IN,39.761293,-86.161336,-5,0,"39.761293, -86.161336"
47730,Evansville,IN,37.997128,-87.574963,-6,1,"37.997128, -87.574963"
68038,Lyons,NE,41.948587,-96.45359,-6,1,"41.948587, -96.45359"
60014,Crystal Lake,IL,42.226623,-88.33066,-6,1,"42.226623, -88.33066"
60135,Genoa,IL,42.10028,-88.6906,-6,1,"42.10028, -88.6906"
61732,Danvers,IL,40.528515,-89.19057,-6,1,"40.528515, -89.19057"
62019,Donnellson,IL,39.017877,-89.46415,-6,1,"39.017877, -89.46415"
62230,Breese,IL,38.620018,-89.5305,-6,1,"38.620018, -89.5305"
56379,Sauk Rapids,MN,45.608178,-94.13838,-6,1,"45.608178, -94.13838"
62618,Beardstown,IL,40.005505,-90.42314,-6,1,"40.005505, -90.42314"
73083,Edmond,OK,35.666481,-97.465436,-6,1,"35.666481, -97.465436"
01105,Springfield,MA,42.096644,-72.5798,-5,1,"42.096644, -72.5798"
02201,Boston,MA,42.338947,-70.919635,-5,1,"42.338947, -70.919635"
02211,Boston,MA,42.338947,-70.919635,-5,1,"42.338947, -70.919635"
02420,Lexington,MA,42.452895,-71.21619,-5,1,"42.452895, -71.21619"
90661,Pico Rivera,CA,33.786594,-118.298662,-8,1,"33.786594, -118.298662"
91760,Norco,CA,33.752886,-116.055617,-8,1,"33.752886, -116.055617"
88528,El Paso,TX,31.694842,-106.299987,-7,1,"31.694842, -106.299987"
93661,Santa Rita Park,CA,37.186872,-120.650351,-8,1,"37.186872, -120.650351"
94205,Sacramento,CA,38.377411,-121.444429,-8,1,"38.377411, -121.444429"
38843,Fulton,MS,34.265985,-88.38409,-6,1,"34.265985, -88.38409"
44136,Strongsville,OH,41.312752,-81.83197,-5,1,"41.312752, -81.83197"
46978,Royal Center,IN,40.860779,-86.50183,-5,0,"40.860779, -86.50183"
47150,New Albany,IN,38.30382,-85.82522,-5,1,"38.30382, -85.82522"
35209,Birmingham,AL,33.468306,-86.80814,-6,1,"33.468306, -86.80814"
35896,Huntsville,AL,34.733964,-86.522913,-6,1,"34.733964, -86.522913"
36069,Ramer,AL,32.07955,-86.14911,-6,1,"32.07955, -86.14911"
37343,Hixson,TN,35.167987,-85.21158,-5,1,"35.167987, -85.21158"
31203,Macon,GA,32.806707,-83.691315,-5,1,"32.806707, -83.691315"
32192,Sparr,FL,29.326821,-82.104632,-5,1,"29.326821, -82.104632"
33266,Miami,FL,25.558428,-80.458168,-5,1,"25.558428, -80.458168"
33785,Indian Rocks Beach,FL,27.887923,-82.84703,-5,1,"27.887923, -82.84703"
63902,Poplar Bluff,MO,36.712451,-90.407013,-6,1,"36.712451, -90.407013"
64011,Bates City,MO,38.980527,-94.07705,-6,1,"38.980527, -94.07705"
64117,Kansas City,MO,39.165253,-94.53158,-6,1,"39.165253, -94.53158"
18815,Camptown,PA,41.77197,-76.521266,-5,1,"41.77197, -76.521266"
19139,Philadelphia,PA,39.961812,-75.23003,-5,1,"39.961812, -75.23003"
19470,Saint Peters,PA,40.186707,-75.728759,-5,1,"40.186707, -75.728759"
56180,Walnut Grove,MN,44.249331,-95.46821,-6,1,"44.249331, -95.46821"
56248,Herman,MN,45.800145,-96.13895,-6,1,"45.800145, -96.13895"
56520,Breckenridge,MN,46.27324,-96.54888,-6,1,"46.27324, -96.54888"
72914,Fort Smith,AR,35.191046,-94.23816,-6,1,"35.191046, -94.23816"
73487,Tatums,OK,34.481151,-97.46209,-6,1,"34.481151, -97.46209"
50219,Pella,IA,41.411394,-92.91126,-6,1,"41.411394, -92.91126"
53204,Milwaukee,WI,43.017414,-87.92625,-6,1,"43.017414, -87.92625"
45663,West Portsmouth,OH,38.743244,-83.05954,-5,1,"38.743244, -83.05954"
46537,Lapaz,IN,41.458188,-86.3076,-5,0,"41.458188, -86.3076"
46936,Greentown,IN,40.482338,-85.94279,-5,0,"40.482338, -85.94279"
47119,Floyds Knobs,IN,38.345815,-85.89095,-5,1,"38.345815, -85.89095"
50171,Montezuma,IA,41.581309,-92.53946,-6,1,"41.581309, -92.53946"
52050,Greeley,IA,42.603334,-91.34528,-6,1,"42.603334, -91.34528"
52326,Quasqueton,IA,42.394662,-91.75917,-6,1,"42.394662, -91.75917"
52330,Ryan,IA,42.338694,-91.49604,-6,1,"42.338694, -91.49604"
52348,Vining,IA,41.990295,-92.38059,-6,1,"41.990295, -92.38059"
35117,Mount Olive,AL,33.665823,-86.87111,-6,1,"33.665823, -86.87111"
37248,Nashville,TN,36.186605,-86.785248,-6,1,"36.186605, -86.785248"
58244,Inkster,ND,48.144073,-97.63321,-6,1,"48.144073, -97.63321"
58272,Petersburg,ND,48.013283,-97.99298,-6,1,"48.013283, -97.99298"
58765,Noonan,ND,48.857983,-103.03833,-6,1,"48.857983, -103.03833"
59922,Lakeside,MT,48.005656,-114.24184,-7,1,"48.005656, -114.24184"
38702,Greenville,MS,33.425792,-90.994597,-6,1,"33.425792, -90.994597"
40509,Lexington,KY,38.005199,-84.40954,-5,1,"38.005199, -84.40954"
40927,Closplint,KY,36.889259,-83.05265,-5,1,"36.889259, -83.05265"
40953,Hinkle,KY,36.943114,-83.81984,-5,1,"36.943114, -83.81984"
49305,Barryton,MI,43.747406,-85.16304,-5,1,"43.747406, -85.16304"
43469,Woodville,OH,41.455129,-83.36565,-5,1,"41.455129, -83.36565"
29914,Dale,SC,32.552652,-80.677001,-5,1,"32.552652, -80.677001"
29918,Estill,SC,32.744565,-81.24794,-5,1,"32.744565, -81.24794"
29932,Luray,SC,32.818844,-81.30864,-5,1,"32.818844, -81.30864"
30003,Norcross,GA,33.960353,-84.037859,-5,1,"33.960353, -84.037859"
31063,Montezuma,GA,32.293293,-83.98913,-5,1,"32.293293, -83.98913"
12979,Rouses Point,NY,44.990606,-73.37017,-5,1,"44.990606, -73.37017"
13452,Saint Johnsville,NY,43.021223,-74.64537,-5,1,"43.021223, -74.64537"
16107,New Castle,PA,40.989662,-80.308376,-5,1,"40.989662, -80.308376"
16623,Cassville,PA,40.274021,-78.04002,-5,1,"40.274021, -78.04002"
32747,Lake Monroe,FL,28.827219,-81.332888,-5,1,"28.827219, -81.332888"
27602,Raleigh,NC,35.758667,-78.671089,-5,1,"35.758667, -78.671089"
24445,Hot Springs,VA,37.970734,-79.89283,-5,1,"37.970734, -79.89283"
24448,Iron Gate,VA,37.797214,-79.79002,-5,1,"37.797214, -79.79002"
24503,Lynchburg,VA,37.440641,-79.20923,-5,1,"37.440641, -79.20923"
01921,Boxford,MA,42.677869,-71.00844,-5,1,"42.677869, -71.00844"
02111,Boston,MA,42.349838,-71.06101,-5,1,"42.349838, -71.06101"
04015,Casco,ME,43.952597,-70.51377,-5,1,"43.952597, -70.51377"
04231,Stoneham,ME,44.261562,-70.87044,-5,1,"44.261562, -70.87044"
04468,Old Town,ME,44.951551,-68.67889,-5,1,"44.951551, -68.67889"
08846,Middlesex,NJ,40.574552,-74.50187,-5,1,"40.574552, -74.50187"
10211,New York,NY,40.780751,-73.977182,-5,1,"40.780751, -73.977182"
10532,Hawthorne,NY,41.103664,-73.7958,-5,1,"41.103664, -73.7958"
05737,Chittenden,VT,43.735819,-72.93145,-5,1,"43.735819, -72.93145"
07663,Saddle Brook,NJ,40.904131,-74.09474,-5,1,"40.904131, -74.09474"
01050,Huntington,MA,42.290209,-72.87942,-5,1,"42.290209, -72.87942"
52561,Fremont,IA,41.214824,-92.43864,-6,1,"41.214824, -92.43864"
58621,Beach,ND,47.077257,-103.93051,-7,1,"47.077257, -103.93051"
61844,Fithian,IL,40.126299,-87.86871,-6,1,"40.126299, -87.86871"
62435,Janesville,IL,39.374287,-88.244487,-6,1,"39.374287, -88.244487"
65745,Seligman,MO,36.530992,-93.95233,-6,1,"36.530992, -93.95233"
65755,Squires,MO,36.802445,-92.62563,-6,1,"36.802445, -92.62563"
66020,Easton,KS,39.331919,-95.11389,-6,1,"39.331919, -95.11389"
68442,Stella,NE,40.229899,-95.77517,-6,1,"40.229899, -95.77517"
76523,Davilla,TX,30.785114,-97.28058,-6,1,"30.785114, -97.28058"
78829,Batesville,TX,28.883474,-99.58416,-6,1,"28.883474, -99.58416"
78942,Giddings,TX,30.182175,-96.93171,-6,1,"30.182175, -96.93171"
79255,Quitaque,TX,34.362997,-101.05209,-6,1,"34.362997, -101.05209"
62844,Grayville,IL,38.257064,-88.00353,-6,1,"38.257064, -88.00353"
63115,Saint Louis,MO,38.676851,-90.24009,-6,1,"38.676851, -90.24009"
64180,Kansas City,MO,39.035038,-94.356728,-6,1,"39.035038, -94.356728"
72396,Wynne,AR,35.229779,-90.83237,-6,1,"35.229779, -90.83237"
84742,Kanarraville,UT,37.522753,-113.203633,-7,1,"37.522753, -113.203633"
98394,Vaughn,WA,47.336226,-122.78309,-8,1,"47.336226, -122.78309"
98607,Camas,WA,45.60916,-122.40547,-8,1,"45.60916, -122.40547"
80810,Cheyenne Wells,CO,38.846982,-102.37913,-7,1,"38.846982, -102.37913"
88527,El Paso,TX,31.694842,-106.299987,-7,1,"31.694842, -106.299987"
93260,Posey,CA,35.846291,-118.63298,-8,1,"35.846291, -118.63298"
93515,Bishop,CA,36.626033,-117.218616,-8,1,"36.626033, -117.218616"
54943,Hancock,WI,44.122177,-89.57305,-6,1,"44.122177, -89.57305"
29166,Ward,SC,33.90529,-81.70607,-5,1,"33.90529, -81.70607"
55057,Northfield,MN,44.459969,-93.16623,-6,1,"44.459969, -93.16623"
37665,Kingsport,TN,36.583233,-82.57249,-5,1,"36.583233, -82.57249"
45002,Cleves,OH,39.180358,-84.73783,-5,1,"39.180358, -84.73783"
38695,Water Valley,MS,34.164116,-89.625197,-6,1,"34.164116, -89.625197"
43828,Keene,OH,40.351271,-81.873607,-5,1,"40.351271, -81.873607"
30177,Tate,GA,34.418116,-84.38462,-5,1,"34.418116, -84.38462"
45305,Bellbrook,OH,39.640059,-84.0855,-5,1,"39.640059, -84.0855"
05769,Salisbury,VT,43.914026,-73.10703,-5,1,"43.914026, -73.10703"
01085,Westfield,MA,42.133642,-72.75029,-5,1,"42.133642, -72.75029"
01340,Colrain,MA,42.673371,-72.73104,-5,1,"42.673371, -72.73104"
25728,Huntington,WV,38.413384,-82.277401,-5,1,"38.413384, -82.277401"
26035,Colliers,WV,40.352943,-80.55585,-5,1,"40.352943, -80.55585"
34230,Sarasota,FL,27.335023,-82.537169,-5,1,"27.335023, -82.537169"
34742,Kissimmee,FL,27.995287,-81.259332,-5,1,"27.995287, -81.259332"
36279,Wellington,AL,33.862349,-85.89512,-6,1,"33.862349, -85.89512"
37020,Bell Buckle,TN,35.616935,-86.39629,-6,1,"35.616935, -86.39629"
21787,Taneytown,MD,39.665171,-77.17264,-5,1,"39.665171, -77.17264"
22560,Tappahannock,VA,37.916172,-76.90656,-5,1,"37.916172, -76.90656"
22812,Bridgewater,VA,38.398049,-79.00071,-5,1,"38.398049, -79.00071"
21075,Elkridge,MD,39.197119,-76.75178,-5,1,"39.197119, -76.75178"
28668,Roaring Gap,NC,36.38846,-81.00733,-5,1,"36.38846, -81.00733"
28786,Waynesville,NC,35.511094,-82.99607,-5,1,"35.511094, -82.99607"
29650,Greer,SC,34.911469,-82.25178,-5,1,"34.911469, -82.25178"
24256,Haysi,VA,37.213189,-82.29759,-5,1,"37.213189, -82.29759"
24285,Stonega,VA,36.953228,-82.79025,-5,1,"36.953228, -82.79025"
78615,Coupland,TX,30.460373,-97.3935,-6,1,"30.460373, -97.3935"
79358,Ropesville,TX,33.425342,-102.16505,-6,1,"33.425342, -102.16505"
82433,Meeteetse,WY,44.20528,-108.92718,-7,1,"44.20528, -108.92718"
70879,Baton Rouge,LA,30.51589,-91.080373,-6,1,"30.51589, -91.080373"
71120,Shreveport,LA,32.607556,-93.75256,-6,1,"32.607556, -93.75256"
72567,Pleasant Grove,AR,35.819261,-91.88291,-6,1,"35.819261, -91.88291"
74068,Shamrock,OK,35.910408,-96.57768,-6,1,"35.910408, -96.57768"
87040,Paguate,NM,35.132004,-107.36564,-7,1,"35.132004, -107.36564"
87187,Albuquerque,NM,35.044339,-106.672872,-7,1,"35.044339, -106.672872"
89113,Las Vegas,NV,36.067495,-115.26039,-8,1,"36.067495, -115.26039"
90056,Los Angeles,CA,33.986212,-118.37099,-8,1,"33.986212, -118.37099"
98438,Tacoma,WA,47.151297,-122.567631,-8,1,"47.151297, -122.567631"
91356,Tarzana,CA,34.164255,-118.54472,-8,1,"34.164255, -118.54472"
92513,Riverside,CA,33.752886,-116.055617,-8,1,"33.752886, -116.055617"
92663,Newport Beach,CA,33.619221,-117.93087,-8,1,"33.619221, -117.93087"
92832,Fullerton,CA,33.869114,-117.92985,-8,1,"33.869114, -117.92985"
74761,Swink,OK,34.01528,-95.20104,-6,1,"34.01528, -95.20104"
76161,Fort Worth,TX,32.771419,-97.291484,-6,1,"32.771419, -97.291484"
83650,Murphy,ID,43.135267,-116.46584,-7,1,"43.135267, -116.46584"
43036,Magnetic Springs,OH,40.353133,-83.26289,-5,1,"40.353133, -83.26289"
61041,Hanover,IL,42.270426,-90.31077,-6,1,"42.270426, -90.31077"
62683,Scottville,IL,39.260862,-89.926068,-6,1,"39.260862, -89.926068"
56032,Freeborn,MN,43.766208,-93.56339,-6,1,"43.766208, -93.56339"
57785,Sturgis,SD,44.409616,-103.46597,-7,1,"44.409616, -103.46597"
46126,Fairland,IN,39.61753,-85.88003,-5,0,"39.61753, -85.88003"
46142,Greenwood,IN,39.62068,-86.15126,-5,0,"39.62068, -86.15126"
46504,Bourbon,IN,41.301049,-86.1114,-5,0,"41.301049, -86.1114"
47535,Freelandville,IN,38.867886,-87.30865,-5,0,"38.867886, -87.30865"
48455,Metamora,MI,42.938891,-83.29409,-5,1,"42.938891, -83.29409"
49724,Dafter,MI,46.33614,-84.43525,-5,1,"46.33614, -84.43525"
01886,Westford,MA,42.592086,-71.43754,-5,1,"42.592086, -71.43754"
02358,North Pembroke,MA,41.805219,-70.62642,-5,1,"41.805219, -70.62642"
62270,Dupo,IL,38.227604,-89.650381,-6,1,"38.227604, -89.650381"
56311,Barrett,MN,45.902998,-95.88297,-6,1,"45.902998, -95.88297"
58124,Fargo,ND,46.934596,-97.229718,-6,1,"46.934596, -97.229718"
62662,Lowder,IL,39.749457,-89.606017,-6,1,"39.749457, -89.606017"
64464,Polk,MO,40.024499,-94.551058,-6,1,"40.024499, -94.551058"
72721,Combs,AR,35.829657,-93.8354,-6,1,"35.829657, -93.8354"
73005,Anadarko,OK,35.050671,-98.23984,-6,1,"35.050671, -98.23984"
79338,Levelland,TX,33.593213,-102.362709,-6,1,"33.593213, -102.362709"
97711,Ashwood,OR,44.738812,-120.75257,-8,1,"44.738812, -120.75257"
98424,Tacoma,WA,47.242186,-122.35916,-8,1,"47.242186, -122.35916"
98430,Camp Murray,WA,47.066193,-122.113223,-8,1,"47.066193, -122.113223"
98464,Tacoma,WA,47.066193,-122.113223,-8,1,"47.066193, -122.113223"
92372,Pinon Hills,CA,34.44654,-117.63411,-8,1,"34.44654, -117.63411"
87511,Alcalde,NM,36.097705,-106.04254,-7,1,"36.097705, -106.04254"
90275,Rancho Palos Verdes,CA,33.758216,-118.36425,-8,1,"33.758216, -118.36425"
38336,Fruitvale,TN,35.748414,-89.032672,-6,1,"35.748414, -89.032672"
39088,Holly Bluff,MS,32.753234,-90.73846,-6,1,"32.753234, -90.73846"
45053,Okeana,OH,39.352687,-84.78591,-5,1,"39.352687, -84.78591"
45251,Cincinnati,OH,39.258124,-84.58733,-5,1,"39.258124, -84.58733"
33901,Fort Myers,FL,26.62365,-81.8727,-5,1,"26.62365, -81.8727"
52207,Baldwin,IA,42.088117,-90.83793,-6,1,"42.088117, -90.83793"
37025,Bon Aqua,TN,35.943598,-87.28991,-6,1,"35.943598, -87.28991"
38045,Laconia,TN,35.290428,-89.232185,-6,1,"35.290428, -89.232185"
33780,Pinellas Park,FL,27.891809,-82.724763,-5,1,"27.891809, -82.724763"
18451,Paupack,PA,41.404263,-75.23826,-5,1,"41.404263, -75.23826"
71644,Grady,AR,34.110042,-91.70488,-6,1,"34.110042, -91.70488"
48202,Detroit,MI,42.375237,-83.07837,-5,1,"42.375237, -83.07837"
56253,Lake Lillian,MN,44.959237,-94.88831,-6,1,"44.959237, -94.88831"
41764,Smilax,KY,37.113248,-83.24326,-5,1,"37.113248, -83.24326"
49668,Mesick,MI,44.405334,-85.71981,-5,1,"44.405334, -85.71981"
52550,Delta,IA,41.330967,-92.34521,-6,1,"41.330967, -92.34521"
30467,Sylvania,GA,32.754635,-81.63543,-5,1,"32.754635, -81.63543"
19718,Newark,DE,39.564499,-75.597047,-5,1,"39.564499, -75.597047"
21644,Ingleside,MD,39.094126,-75.87294,-5,1,"39.094126, -75.87294"
13224,Syracuse,NY,43.041866,-76.1032,-5,1,"43.041866, -76.1032"
15102,Bethel Park,PA,40.324535,-80.03864,-5,1,"40.324535, -80.03864"
16565,Erie,PA,42.182748,-80.064915,-5,1,"42.182748, -80.064915"
33064,Pompano Beach,FL,26.279108,-80.11319,-5,1,"26.279108, -80.11319"
33565,Plant City,FL,28.065552,-82.14506,-5,1,"28.065552, -82.14506"
21922,Elkton,MD,39.593612,-75.947332,-5,1,"39.593612, -75.947332"
22034,Fairfax,VA,38.831813,-77.288755,-5,1,"38.831813, -77.288755"
23704,Portsmouth,VA,36.830748,-76.31369,-5,1,"36.830748, -76.31369"
01754,Maynard,MA,42.430781,-71.45594,-5,1,"42.430781, -71.45594"
03438,Harrisville,NH,42.921791,-72.00547,-5,1,"42.921791, -72.00547"
04116,South Portland,ME,44.408078,-70.470703,-5,1,"44.408078, -70.470703"
00751,Salinas,PR,17.993803,-66.26534,-4,0,"17.993803, -66.26534"
13782,Hamden,NY,42.18942,-74.99219,-5,1,"42.18942, -74.99219"
32321,Bristol,FL,30.36007,-84.97668,-5,1,"30.36007, -84.97668"
33763,Clearwater,FL,28.001394,-82.74549,-5,1,"28.001394, -82.74549"
20239,Washington,DC,38.893311,-77.014647,-5,1,"38.893311, -77.014647"
21274,Baltimore,MD,39.284707,-76.620489,-5,1,"39.284707, -76.620489"
22315,Alexandria,VA,38.757924,-77.15284,-5,1,"38.757924, -77.15284"
22442,Coles Point,VA,38.121793,-76.79025,-5,1,"38.121793, -76.79025"
23129,Oilville,VA,37.698646,-77.77111,-5,1,"37.698646, -77.77111"
24085,Eagle Rock,VA,37.671394,-79.81681,-5,1,"37.671394, -79.81681"
18001,Lehigh Valley,PA,40.693376,-75.471156,-5,1,"40.693376, -75.471156"
33836,Davenport,FL,28.167211,-81.631589,-5,1,"28.167211, -81.631589"
35063,Empire,AL,33.805216,-87.00192,-6,1,"33.805216, -87.00192"
12144,Rensselaer,NY,42.63738,-73.72587,-5,1,"42.63738, -73.72587"
03809,Alton,NH,43.478364,-71.22377,-5,1,"43.478364, -71.22377"
08213,Cologne,NJ,39.509208,-74.608557,-5,1,"39.509208, -74.608557"
11555,Uniondale,NY,40.754757,-73.601772,-5,1,"40.754757, -73.601772"
11558,Island Park,NY,40.603159,-73.65515,-5,1,"40.603159, -73.65515"
00614,Arecibo,PR,18.429675,-66.674506,-4,0,"18.429675, -66.674506"
48381,Milford,MI,42.571402,-83.59318,-5,1,"42.571402, -83.59318"
43025,Hebron,OH,39.958869,-82.49882,-5,1,"39.958869, -82.49882"
44117,Euclid,OH,41.570344,-81.52726,-5,1,"41.570344, -81.52726"
44513,Youngstown,OH,41.017082,-80.802854,-5,1,"41.017082, -80.802854"
46303,Cedar Lake,IN,41.36959,-87.44849,-6,1,"41.36959, -87.44849"
37411,Chattanooga,TN,35.023824,-85.2333,-5,1,"35.023824, -85.2333"
38673,Taylor,MS,34.279282,-89.601,-6,1,"34.279282, -89.601"
88581,El Paso,TX,31.694842,-106.299987,-7,1,"31.694842, -106.299987"
89150,Las Vegas,NV,35.927901,-114.972061,-8,1,"35.927901, -114.972061"
90022,Los Angeles,CA,34.023662,-118.15581,-8,1,"34.023662, -118.15581"
92317,Blue Jay,CA,34.245607,-117.23,-8,1,"34.245607, -117.23"
92589,Temecula,CA,33.752886,-116.055617,-8,1,"33.752886, -116.055617"
92803,Anaheim,CA,33.640302,-117.769442,-8,1,"33.640302, -117.769442"
54720,Altoona,WI,44.80416,-91.43963,-6,1,"44.80416, -91.43963"
55581,Monticello,MN,45.200875,-93.888099,-6,1,"45.200875, -93.888099"
61037,Galt,IL,41.788761,-89.76182,-6,1,"41.788761, -89.76182"
62426,Edgewood,IL,38.913064,-88.66404,-6,1,"38.913064, -88.66404"
62462,Sigel,IL,39.223922,-88.47715,-6,1,"39.223922, -88.47715"
66610,Topeka,KS,38.981849,-95.79016,-6,1,"38.981849, -95.79016"
68132,Omaha,NE,41.26565,-95.99741,-6,1,"41.26565, -95.99741"
74522,Alderson,OK,34.902286,-95.69073,-6,1,"34.902286, -95.69073"
77028,Houston,TX,29.827315,-95.28631,-6,1,"29.827315, -95.28631"
78572,Mission,TX,26.234417,-98.34205,-6,1,"26.234417, -98.34205"
79171,Amarillo,TX,35.401475,-101.895089,-6,1,"35.401475, -101.895089"
79766,Odessa,TX,31.749504,-102.32177,-6,1,"31.749504, -102.32177"
72421,Cash,AR,35.786094,-90.97073,-6,1,"35.786094, -90.97073"
73702,Enid,OK,36.379072,-97.782595,-6,1,"36.379072, -97.782595"
84401,Ogden,UT,41.224911,-111.98346,-7,1,"41.224911, -111.98346"
85246,Chandler,AZ,33.276539,-112.18717,-7,0,"33.276539, -112.18717"
86429,Bullhead City,AZ,35.172854,-114.54696,-7,0,"35.172854, -114.54696"
99637,Toksook Bay,AK,60.532936,-165.10529,-9,1,"60.532936, -165.10529"
96002,Redding,CA,40.539302,-122.33279,-8,1,"40.539302, -122.33279"
96023,Dorris,CA,41.963883,-121.89165,-8,1,"41.963883, -121.89165"
97407,Allegany,OR,43.246918,-124.231068,-8,1,"43.246918, -124.231068"
80426,Burns,CO,39.885527,-106.93018,-7,1,"39.885527, -106.93018"
80736,Iliff,CO,40.798956,-103.04649,-7,1,"40.798956, -103.04649"
81301,Durango,CO,37.295888,-107.84945,-7,1,"37.295888, -107.84945"
83451,Teton,ID,43.890719,-111.64522,-7,1,"43.890719, -111.64522"
91333,Pacoima,CA,33.786594,-118.298662,-8,1,"33.786594, -118.298662"
91357,Tarzana,CA,33.786594,-118.298662,-8,1,"33.786594, -118.298662"
94138,San Francisco,CA,37.784827,-122.727802,-8,1,"37.784827, -122.727802"
29332,Cross Hill,SC,34.270774,-81.98276,-5,1,"34.270774, -81.98276"
38425,Clifton,TN,35.401188,-87.97188,-6,1,"35.401188, -87.97188"
39086,Hermanville,MS,31.983753,-90.79058,-6,1,"31.983753, -90.79058"
40359,Owenton,KY,38.467809,-84.81023,-5,1,"38.467809, -84.81023"
45350,North Star,OH,40.135426,-84.619129,-5,1,"40.135426, -84.619129"
45681,South Salem,OH,39.308063,-83.25664,-5,1,"39.308063, -83.25664"
31119,Atlanta,GA,33.891251,-84.07456,-5,1,"33.891251, -84.07456"
32214,Jacksonville,FL,30.34494,-81.683107,-5,1,"30.34494, -81.683107"
32245,Jacksonville,FL,30.34494,-81.683107,-5,1,"30.34494, -81.683107"
33019,Hollywood,FL,26.018967,-80.12231,-5,1,"26.018967, -80.12231"
95042,New Almaden,CA,37.189396,-121.705327,-8,1,"37.189396, -121.705327"
95224,Avery,CA,38.208553,-120.34876,-8,1,"38.208553, -120.34876"
98226,Bellingham,WA,48.759079,-122.43597,-8,1,"48.759079, -122.43597"
98536,Copalis Crossing,WA,47.179475,-124.14241,-8,1,"47.179475, -124.14241"
99107,Boyds,WA,48.84269,-118.182764,-8,1,"48.84269, -118.182764"
99341,Lind,WA,46.912194,-118.63676,-8,1,"46.912194, -118.63676"
99722,Arctic Village,AK,68.121828,-145.52768,-9,1,"68.121828, -145.52768"
84020,Draper,UT,40.514843,-111.87294,-7,1,"40.514843, -111.87294"
84123,Salt Lake City,UT,40.659514,-111.92226,-7,1,"40.659514, -111.92226"
95676,Robbins,CA,38.909351,-121.71843,-8,1,"38.909351, -121.71843"
40297,Louisville,KY,38.188962,-85.676819,-5,1,"38.188962, -85.676819"
53128,Genoa City,WI,42.526028,-88.33443,-6,1,"42.526028, -88.33443"
55951,Le Roy,MN,43.525845,-92.51616,-6,1,"43.525845, -92.51616"
45619,Chesapeake,OH,38.448563,-82.44553,-5,1,"38.448563, -82.44553"
46162,Needham,IN,39.542985,-85.95928,-5,0,"39.542985, -85.95928"
46778,Petroleum,IN,40.611419,-85.152604,-5,0,"40.611419, -85.152604"
49819,Arnold,MI,46.604141,-87.614805,-5,1,"46.604141, -87.614805"
50438,Garner,IA,43.102343,-93.61033,-6,1,"43.102343, -93.61033"
52229,Garrison,IA,42.145175,-92.1509,-6,1,"42.145175, -92.1509"
41128,Carter,KY,38.433912,-83.133597,-5,1,"38.433912, -83.133597"
42375,Stanley,KY,37.745491,-87.112823,-6,1,"37.745491, -87.112823"
60033,Harvard,IL,42.424338,-88.61431,-6,1,"42.424338, -88.61431"
62028,Elsah,IL,38.958848,-90.35383,-6,1,"38.958848, -90.35383"
63767,Morley,MO,37.043378,-89.61264,-6,1,"37.043378, -89.61264"
64083,Raymore,MO,38.803528,-94.45103,-6,1,"38.803528, -94.45103"
48765,Turner,MI,44.147192,-83.73723,-5,1,"44.147192, -83.73723"
30541,Epworth,GA,34.925622,-84.42981,-5,1,"34.925622, -84.42981"
31097,Yatesville,GA,32.912207,-84.14812,-5,1,"32.912207, -84.14812"
31312,Guyton,GA,32.313816,-81.3908,-5,1,"32.313816, -81.3908"
31999,Columbus,GA,32.491005,-84.874123,-5,1,"32.491005, -84.874123"
32258,Jacksonville,FL,30.148209,-81.56882,-5,1,"30.148209, -81.56882"
32537,Milligan,FL,30.741965,-86.655208,-6,1,"30.741965, -86.655208"
20201,Washington,DC,38.893311,-77.014647,-5,1,"38.893311, -77.014647"
20233,Washington,DC,38.893311,-77.014647,-5,1,"38.893311, -77.014647"
20892,Bethesda,MD,39.002375,-77.10341,-5,1,"39.002375, -77.10341"
42637,Monticello,KY,36.843563,-84.841004,-5,1,"36.843563, -84.841004"
49759,Millersburg,MI,45.433394,-84.09811,-5,1,"45.433394, -84.09811"
28607,Boone,NC,36.21277,-81.66255,-5,1,"36.21277, -81.66255"
50449,Klemme,IA,43.002473,-93.58292,-6,1,"43.002473, -93.58292"
29666,Ninety Six,SC,34.14606,-82.00203,-5,1,"34.14606, -82.00203"
50071,Dows,IA,42.653654,-93.50761,-6,1,"42.653654, -93.50761"
51532,Elliott,IA,41.140956,-95.13004,-6,1,"41.140956, -95.13004"
52255,Lowden,IA,41.86521,-90.94316,-6,1,"41.86521, -90.94316"
53553,Linden,WI,42.92239,-90.28554,-6,1,"42.92239, -90.28554"
54221,Manitowoc,WI,44.132295,-87.599031,-6,1,"44.132295, -87.599031"
40997,Walker,KY,36.888893,-83.66257,-5,1,"36.888893, -83.66257"
43016,Dublin,OH,40.089811,-83.13983,-5,1,"40.089811, -83.13983"
43842,Trinway,OH,40.140472,-82.01079,-5,1,"40.140472, -82.01079"
39322,Buckatunna,MS,31.574589,-88.53326,-6,1,"31.574589, -88.53326"
32137,Palm Coast,FL,29.581683,-81.21645,-5,1,"29.581683, -81.21645"
32826,Orlando,FL,28.584177,-81.18634,-5,1,"28.584177, -81.18634"
35013,Allgood,AL,33.922162,-86.449262,-6,1,"33.922162, -86.449262"
35096,Lincoln,AL,33.605233,-86.12079,-6,1,"33.605233, -86.12079"
45808,Beaverdam,OH,40.832363,-83.97343,-5,1,"40.832363, -83.97343"
38311,Bath Springs,TN,35.436584,-88.11912,-6,1,"35.436584, -88.11912"
15915,Johnstown,PA,40.484487,-78.702224,-5,1,"40.484487, -78.702224"
16111,Atlantic,PA,41.518256,-80.2834,-5,1,"41.518256, -80.2834"
16803,State College,PA,40.802661,-77.89936,-5,1,"40.802661, -77.89936"
17036,Hummelstown,PA,40.270367,-76.7048,-5,1,"40.270367, -76.7048"
18826,Kingsley,PA,41.738688,-75.72679,-5,1,"41.738688, -75.72679"
28345,Hamlet,NC,34.879186,-79.69001,-5,1,"34.879186, -79.69001"
28463,Tabor City,NC,34.12483,-78.82187,-5,1,"34.12483, -78.82187"
29056,Greeleyville,SC,33.634675,-79.99205,-5,1,"33.634675, -79.99205"
29904,Beaufort,SC,32.390605,-80.661027,-5,1,"32.390605, -80.661027"
10117,New York,NY,40.780751,-73.977182,-5,1,"40.780751, -73.977182"
11575,Roosevelt,NY,40.679413,-73.58694,-5,1,"40.679413, -73.58694"
11789,Sound Beach,NY,40.955586,-72.9733,-5,1,"40.955586, -72.9733"
24871,Pageton,WV,37.325163,-81.47554,-5,1,"37.325163, -81.47554"
20035,Washington,DC,38.893311,-77.014647,-5,1,"38.893311, -77.014647"
20585,Washington,DC,38.893311,-77.014647,-5,1,"38.893311, -77.014647"
20643,Ironsides,MD,38.503876,-77.148283,-5,1,"38.503876, -77.148283"
27411,Greensboro,NC,36.080707,-80.0244,-5,1,"36.080707, -80.0244"
96811,Honolulu,HI,24.859832,-168.021815,-10,0,"24.859832, -168.021815"
92557,Moreno Valley,CA,33.957957,-117.24833,-8,1,"33.957957, -117.24833"
92707,Santa Ana,CA,33.719118,-117.87143,-8,1,"33.719118, -117.87143"
97905,Durkee,OR,44.578393,-117.48787,-8,1,"44.578393, -117.48787"
99144,Lamona,WA,47.60894,-118.399551,-8,1,"47.60894, -118.399551"
99575,Crooked Creek,AK,61.859821,-158.12888,-9,1,"61.859821, -158.12888"
03450,Harrisville,NH,42.941175,-72.06043,-5,1,"42.941175, -72.06043"
03827,East Kingston,NH,42.91574,-70.98459,-5,1,"42.91574, -70.98459"
60946,Kempton,IL,40.908942,-88.21304,-6,1,"40.908942, -88.21304"
63012,Barnhart,MO,38.337458,-90.42316,-6,1,"38.337458, -90.42316"
63013,Beaufort,MO,38.415995,-91.1603,-6,1,"38.415995, -91.1603"
79776,Penwell,TX,31.730204,-102.62831,-6,1,"31.730204, -102.62831"
79902,El Paso,TX,31.775458,-106.4945,-7,1,"31.775458, -106.4945"
70571,Opelousas,LA,30.57445,-92.086077,-6,1,"30.57445, -92.086077"
70714,Baker,LA,30.584787,-91.14763,-6,1,"30.584787, -91.14763"
71921,Amity,AR,34.257603,-93.45822,-6,1,"34.257603, -93.45822"
72949,Ozark,AR,35.549469,-93.81819,-6,1,"35.549469, -93.81819"
83406,Idaho Falls,ID,43.458004,-111.95925,-7,1,"43.458004, -111.95925"
84639,Levan,UT,39.47178,-111.94431,-7,1,"39.47178, -111.94431"
59925,Marion,MT,48.080862,-114.80804,-7,1,"48.080862, -114.80804"
68967,Oxford,NE,40.247784,-99.62187,-6,1,"40.247784, -99.62187"
65439,Bixby,MO,37.672965,-91.1097,-6,1,"37.672965, -91.1097"
73008,Bethany,OK,35.506456,-97.63934,-6,1,"35.506456, -97.63934"
77036,Houston,TX,29.70053,-95.53514,-6,1,"29.70053, -95.53514"
94956,Point Reyes Station,CA,38.081566,-122.81988,-8,1,"38.081566, -122.81988"
51579,Woodbine,IA,41.743335,-95.71117,-6,1,"41.743335, -95.71117"
52639,Montrose,IA,40.547399,-91.43864,-6,1,"40.547399, -91.43864"
54841,Haugen,WI,45.612444,-91.77624,-6,1,"45.612444, -91.77624"
55068,Rosemount,MN,44.732105,-93.13437,-6,1,"44.732105, -93.13437"
55561,Monticello,MN,44.805487,-93.766524,-6,1,"44.805487, -93.766524"
36530,Elberta,AL,30.377657,-87.56159,-6,1,"30.377657, -87.56159"
36556,Malcolm,AL,31.213801,-87.96228,-6,1,"31.213801, -87.96228"
37878,Tallassee,TN,35.63373,-83.93138,-5,1,"35.63373, -83.93138"
39522,Stennis Space Center,MS,30.403156,-89.49821,-6,1,"30.403156, -89.49821"
40219,Louisville,KY,38.141638,-85.68218,-5,1,"38.141638, -85.68218"
47060,West Harrison,IN,39.288178,-84.87774,-5,0,"39.288178, -84.87774"
59703,Butte,MT,45.905345,-112.637705,-7,1,"45.905345, -112.637705"
60183,Wasco,IL,41.936977,-88.420178,-6,1,"41.936977, -88.420178"
58779,Ryder,ND,47.811566,-101.86084,-6,1,"47.811566, -101.86084"
51338,Everly,IA,43.193363,-95.31854,-6,1,"43.193363, -95.31854"
35441,Akron,AL,32.871514,-87.73326,-6,1,"32.871514, -87.73326"
36313,Bellwood,AL,31.174249,-85.79562,-6,1,"31.174249, -85.79562"
43711,Ava,OH,39.827556,-81.554854,-5,1,"39.827556, -81.554854"
47987,Veedersburg,IN,40.118561,-87.23646,-5,0,"40.118561, -87.23646"
44399,Akron,OH,41.128705,-81.53999,-5,1,"41.128705, -81.53999"
46235,Indianapolis,IN,39.835369,-85.98635,-5,0,"39.835369, -85.98635"
34953,Port Saint Lucie,FL,27.246754,-80.38145,-5,1,"27.246754, -80.38145"
17024,Elliottsburg,PA,40.413024,-77.30162,-5,1,"40.413024, -77.30162"
17222,Fayetteville,PA,39.897287,-77.52006,-5,1,"39.897287, -77.52006"
32158,Lady Lake,FL,28.811078,-81.653642,-5,1,"28.811078, -81.653642"
32531,Baker,FL,30.8752,-86.68607,-6,1,"30.8752, -86.68607"
32542,Eglin AFB,FL,30.457156,-86.55081,-6,1,"30.457156, -86.55081"
33767,Clearwater Beach,FL,27.982722,-82.82504,-5,1,"27.982722, -82.82504"
24869,North Spring,WV,37.551372,-81.84229,-5,1,"37.551372, -81.84229"
25432,Millville,WV,39.315914,-77.877223,-5,1,"39.315914, -77.877223"
20082,Washington,DC,38.893311,-77.014647,-5,1,"38.893311, -77.014647"
20090,Washington,DC,38.893311,-77.014647,-5,1,"38.893311, -77.014647"
28747,Lake Toxaway,NC,35.146004,-82.92258,-5,1,"35.146004, -82.92258"
18041,East Greenville,PA,40.410224,-75.50845,-5,1,"40.410224, -75.50845"
18624,Lake Harmony,PA,41.058352,-75.60137,-5,1,"41.058352, -75.60137"
27509,Butner,NC,36.138298,-78.75882,-5,1,"36.138298, -78.75882"
28261,Charlotte,NC,35.26002,-80.804151,-5,1,"35.26002, -80.804151"
49003,Kalamazoo,MI,42.245412,-85.529858,-5,1,"42.245412, -85.529858"
35128,Pell City,AL,33.561597,-86.30285,-6,1,"33.561597, -86.30285"
25302,Charleston,WV,38.375397,-81.62367,-5,1,"38.375397, -81.62367"
25904,Pax,WV,37.935699,-81.26724,-5,1,"37.935699, -81.26724"
42235,Hadley,KY,36.983441,-86.394012,-6,1,"36.983441, -86.394012"
00917,San Juan,PR,18.422263,-66.0513,-4,0,"18.422263, -66.0513"
18820,Gibson,PA,41.803936,-75.64431,-5,1,"41.803936, -75.64431"
19535,Limekiln,PA,40.335593,-75.801009,-5,1,"40.335593, -75.801009"
27625,Raleigh,NC,35.797692,-78.625265,-5,1,"35.797692, -78.625265"
44084,Rock Creek,OH,41.659739,-80.86635,-5,1,"41.659739, -80.86635"
44177,Cleveland,OH,41.685744,-81.672797,-5,1,"41.685744, -81.672797"
46393,Wheeler,IN,41.510333,-87.17829,-6,1,"41.510333, -87.17829"
31807,Ellerslie,GA,32.634965,-84.80137,-5,1,"32.634965, -84.80137"
32701,Altamonte Springs,FL,28.666249,-81.36796,-5,1,"28.666249, -81.36796"
33624,Tampa,FL,28.07506,-82.52355,-5,1,"28.07506, -82.52355"
07571,Totowa,NJ,40.899873,-74.23019,-5,1,"40.899873, -74.23019"
01020,Chicopee,MA,42.175992,-72.57265,-5,1,"42.175992, -72.57265"
01966,Rockport,MA,42.659936,-70.61727,-5,1,"42.659936, -70.61727"
02053,Medway,MA,42.151526,-71.42315,-5,1,"42.151526, -71.42315"
02562,Sagamore Beach,MA,41.793263,-70.519584,-5,1,"41.793263, -70.519584"
20910,Silver Spring,MD,38.999992,-77.03404,-5,1,"38.999992, -77.03404"
22203,Arlington,VA,38.874979,-77.11455,-5,1,"38.874979, -77.11455"
23292,Richmond,VA,37.524246,-77.493157,-5,1,"37.524246, -77.493157"
24105,Indian Valley,VA,36.901524,-80.5936,-5,1,"36.901524, -80.5936"
14646,Rochester,NY,43.286024,-77.684264,-5,1,"43.286024, -77.684264"
16375,Lamartine,PA,41.202325,-79.453751,-5,1,"41.202325, -79.453751"
11735,Farmingdale,NY,40.725968,-73.44151,-5,1,"40.725968, -73.44151"
12068,Fonda,NY,42.953913,-74.37883,-5,1,"42.953913, -74.37883"
25174,Rock Creek,WV,37.850007,-81.4451,-5,1,"37.850007, -81.4451"
25506,Branchland,WV,38.214232,-82.191,-5,1,"38.214232, -82.191"
34712,Clermont,FL,28.811078,-81.653642,-5,1,"28.811078, -81.653642"
37161,Shelbyville,TN,35.471531,-86.489019,-6,1,"35.471531, -86.489019"
37190,Woodbury,TN,35.813335,-86.05538,-6,1,"35.813335, -86.05538"
18073,Pennsburg,PA,40.388263,-75.48659,-5,1,"40.388263, -75.48659"
30113,Buchanan,GA,33.84627,-85.20291,-5,1,"33.84627, -85.20291"
95959,Nevada City,CA,39.299405,-120.95144,-8,1,"39.299405, -120.95144"
15489,West Leisenring,PA,39.955933,-79.69946,-5,1,"39.955933, -79.69946"
16740,Mount Jewett,PA,41.734498,-78.61379,-5,1,"41.734498, -78.61379"
17552,Mount Joy,PA,40.109445,-76.50919,-5,1,"40.109445, -76.50919"
18424,Gouldsboro,PA,41.251286,-75.49121,-5,1,"41.251286, -75.49121"
32358,Sopchoppy,FL,30.029899,-84.50595,-5,1,"30.029899, -84.50595"
32957,Roseland,FL,27.709049,-80.572557,-5,1,"27.709049, -80.572557"
34690,Holiday,FL,28.190181,-82.72696,-5,1,"28.190181, -82.72696"
34992,Port Salerno,FL,27.110182,-80.454196,-5,1,"27.110182, -80.454196"
24468,Mustoe,VA,38.385967,-79.559157,-5,1,"38.385967, -79.559157"
24631,Oakwood,VA,37.223011,-82.00538,-5,1,"37.223011, -82.00538"
27850,Littleton,NC,36.451785,-77.90383,-5,1,"36.451785, -77.90383"
30645,High Shoals,GA,33.801274,-83.516374,-5,1,"33.801274, -83.516374"
32087,Sanderson,FL,30.390734,-82.26039,-5,1,"30.390734, -82.26039"
05745,Forest Dale,VT,43.592039,-72.818121,-5,1,"43.592039, -72.818121"
06081,Tariffville,CT,41.907114,-72.76831,-5,1,"41.907114, -72.76831"
11791,Syosset,NY,40.815215,-73.50057,-5,1,"40.815215, -73.50057"
12604,Poughkeepsie,NY,41.759905,-73.743714,-5,1,"41.759905, -73.743714"
13119,Mottville,NY,42.97446,-76.440833,-5,1,"42.97446, -76.440833"
00643,Corozal,PR,18.341254,-66.315194,-4,0,"18.341254, -66.315194"
02401,Brockton,MA,42.079399,-71.03459,-5,1,"42.079399, -71.03459"
49752,Kinross,MI,46.250359,-84.48228,-5,1,"46.250359, -84.48228"
78241,San Antonio,TX,29.437532,-98.461582,-6,1,"29.437532, -98.461582"
78714,Austin,TX,30.335787,-97.443751,-6,1,"30.335787, -97.443751"
91309,Canoga Park,CA,33.786594,-118.298662,-8,1,"33.786594, -118.298662"
92197,San Diego,CA,33.016928,-116.846046,-8,1,"33.016928, -116.846046"
93004,Ventura,CA,34.278812,-119.16784,-8,1,"34.278812, -119.16784"
94074,San Gregorio,CA,37.317278,-122.36526,-8,1,"37.317278, -122.36526"
86445,Willow Beach,AZ,35.605301,-113.642712,-7,0,"35.605301, -113.642712"
95211,Stockton,CA,37.981073,-121.308008,-8,1,"37.981073, -121.308008"
95229,Douglas Flat,CA,38.110355,-120.45436,-8,1,"38.110355, -120.45436"
96050,Klamath River,CA,41.831947,-122.9206,-8,1,"41.831947, -122.9206"
75077,Lewisville,TX,33.075138,-97.0529,-6,1,"33.075138, -97.0529"
75323,Dallas,TX,32.767268,-96.777626,-6,1,"32.767268, -96.777626"
75602,Longview,TX,32.474499,-94.712,-6,1,"32.474499, -94.712"
69210,Ainsworth,NE,42.530382,-99.88206,-6,1,"42.530382, -99.88206"
84716,Boulder,UT,37.94512,-111.09991,-7,1,"37.94512, -111.09991"
38668,Senatobia,MS,34.607602,-89.94635,-6,1,"34.607602, -89.94635"
45732,Glouster,OH,39.506243,-82.0779,-5,1,"39.506243, -82.0779"
45999,Cincinnati,OH,39.166759,-84.53822,-5,1,"39.166759, -84.53822"
46311,Dyer,IN,41.491377,-87.51022,-6,1,"41.491377, -87.51022"
65438,Birch Tree,MO,36.95653,-91.49134,-6,1,"36.95653, -91.49134"
66863,Neal,KS,37.831349,-96.07111,-6,1,"37.831349, -96.07111"
67744,Ludell,KS,39.857038,-100.93866,-6,1,"39.857038, -100.93866"
68346,Dunbar,NE,40.666814,-96.02796,-6,1,"40.666814, -96.02796"
68423,Pleasant Dale,NE,40.806723,-96.93931,-6,1,"40.806723, -96.93931"
76028,Burleson,TX,32.535841,-97.30681,-6,1,"32.535841, -97.30681"
77225,Houston,TX,29.83399,-95.434241,-6,1,"29.83399, -95.434241"
80521,Fort Collins,CO,40.586282,-105.10494,-7,1,"40.586282, -105.10494"
81521,Fruita,CO,39.159971,-108.72071,-7,1,"39.159971, -108.72071"
83211,American Falls,ID,42.75159,-112.91931,-7,1,"42.75159, -112.91931"
84010,Bountiful,UT,40.876312,-111.87249,-7,1,"40.876312, -111.87249"
84201,Ogden,UT,41.244261,-112.007924,-7,1,"41.244261, -112.007924"
85942,Woodruff,AZ,34.778649,-109.96697,-7,0,"34.778649, -109.96697"
59601,Helena,MT,46.588803,-112.04193,-7,1,"46.588803, -112.04193"
60417,Crete,IL,41.439034,-87.61173,-6,1,"41.439034, -87.61173"
61361,Sheffield,IL,41.400837,-89.74444,-6,1,"41.400837, -89.74444"
57647,Parade,SD,45.098685,-100.879214,-7,1,"45.098685, -100.879214"
58006,Arthur,ND,47.10167,-97.2147,-6,1,"47.10167, -97.2147"
78215,San Antonio,TX,29.438032,-98.48114,-6,1,"29.438032, -98.48114"
72327,Crawfordsville,AR,35.232817,-90.33123,-6,1,"35.232817, -90.33123"
73851,May,OK,36.614425,-99.77153,-6,1,"36.614425, -99.77153"
71211,Monroe,LA,32.490777,-92.159354,-6,1,"32.490777, -92.159354"
71753,Magnolia,AR,33.249608,-93.20427,-6,1,"33.249608, -93.20427"
24412,Bacova,VA,38.054111,-79.84575,-5,1,"38.054111, -79.84575"
24714,Beeson,WV,37.501743,-81.22148,-5,1,"37.501743, -81.22148"
30261,Lagrange,GA,33.04567,-85.048995,-5,1,"33.04567, -85.048995"
30753,Trion,GA,34.558404,-85.30301,-5,1,"34.558404, -85.30301"
33269,Miami,FL,25.558428,-80.458168,-5,1,"25.558428, -80.458168"
19979,Viola,DE,39.0461,-75.57185,-5,1,"39.0461, -75.57185"
20019,Washington,DC,38.891445,-76.93811,-5,1,"38.891445, -76.93811"
21830,Hebron,MD,38.407885,-75.69357,-5,1,"38.407885, -75.69357"
08857,Old Bridge,NJ,40.397507,-74.3298,-5,1,"40.397507, -74.3298"
10993,West Haverstraw,NY,41.207594,-73.97772,-5,1,"41.207594, -73.97772"
11109,Long Island City,NY,40.651378,-73.870779,-5,1,"40.651378, -73.870779"
28553,Marshallberg,NC,34.725663,-76.51632,-5,1,"34.725663, -76.51632"
29214,Columbia,SC,34.005992,-80.970766,-5,1,"34.005992, -80.970766"
13402,Madison,NY,42.90777,-75.4988,-5,1,"42.90777, -75.4988"
52570,Milton,IA,40.679958,-92.162,-6,1,"40.679958, -92.162"
53220,Milwaukee,WI,42.969115,-87.99141,-6,1,"42.969115, -87.99141"
54950,Marion,WI,44.669461,-88.89693,-6,1,"44.669461, -88.89693"
36736,Dixons Mills,AL,32.069338,-87.77893,-6,1,"32.069338, -87.77893"
10625,White Plains,NY,41.119008,-73.732996,-5,1,"41.119008, -73.732996"
10963,Otisville,NY,41.475197,-74.53847,-5,1,"41.475197, -74.53847"
02177,Melrose,MA,42.446396,-71.459405,-5,1,"42.446396, -71.459405"
75408,Anna,TX,33.349316,-96.548597,-6,1,"33.349316, -96.548597"
75659,Jonesville,TX,32.507491,-94.110636,-6,1,"32.507491, -94.110636"
76249,Krum,TX,33.270036,-97.24859,-6,1,"33.270036, -97.24859"
77336,Huffman,TX,30.045495,-95.10714,-6,1,"30.045495, -95.10714"
65759,Taneyville,MO,36.739739,-93.02965,-6,1,"36.739739, -93.02965"
66650,Powhattan,KS,39.672989,-95.788948,-6,1,"39.672989, -95.788948"
72099,Little Rock Air Force Base,AR,34.908539,-92.11722,-6,1,"34.908539, -92.11722"
72423,Tuckerman,AR,35.723939,-91.203248,-6,1,"35.723939, -91.203248"
74533,Caney,OK,34.217672,-96.19634,-6,1,"34.217672, -96.19634"
42642,Russell Springs,KY,37.05401,-85.06142,-6,1,"37.05401, -85.06142"
44644,Malvern,OH,40.68357,-81.17453,-5,1,"40.68357, -81.17453"
70469,Slidell,LA,30.42551,-89.881256,-6,1,"30.42551, -89.881256"
27010,Bethania,NC,36.182975,-80.338662,-5,1,"36.182975, -80.338662"
56072,New Richland,MN,43.899778,-93.53178,-6,1,"43.899778, -93.53178"
47070,Lovett,IN,38.897246,-85.726384,-5,0,"38.897246, -85.726384"
47303,Muncie,IN,40.221103,-85.37602,-5,0,"40.221103, -85.37602"
20024,Washington,DC,38.880112,-77.02362,-5,1,"38.880112, -77.02362"
20536,Washington,DC,38.901211,-77.016948,-5,1,"38.901211, -77.016948"
20744,Fort Washington,MD,38.756347,-76.99034,-5,1,"38.756347, -76.99034"
50562,Mallard,IA,42.949884,-94.66372,-6,1,"42.949884, -94.66372"
83235,Ellis,ID,44.633935,-113.99217,-7,1,"44.633935, -113.99217"
84044,Magna,UT,40.700162,-112.08318,-7,1,"40.700162, -112.08318"
78417,Corpus Christi,TX,27.729855,-97.44503,-6,1,"27.729855, -97.44503"
79870,Alpine,TX,30.354251,-103.658391,-6,1,"30.354251, -103.658391"
87009,Cedarvale,NM,34.650925,-105.880597,-7,1,"34.650925, -105.880597"
61862,Penfield,IL,40.296282,-87.95553,-6,1,"40.296282, -87.95553"
92281,Westmorland,CA,33.037061,-115.6194,-8,1,"33.037061, -115.6194"
92623,Irvine,CA,33.686519,-117.830788,-8,1,"33.686519, -117.830788"
14463,Hall,NY,42.796578,-77.063876,-5,1,"42.796578, -77.063876"
14730,East Randolph,NY,42.174736,-78.94734,-5,1,"42.174736, -78.94734"
20139,Casanova,VA,38.651558,-77.70361,-5,1,"38.651558, -77.70361"
20502,Washington,DC,38.89872,-77.036198,-5,1,"38.89872, -77.036198"
24072,Check,VA,37.040036,-80.2167,-5,1,"37.040036, -80.2167"
04611,Beals,ME,44.507801,-67.6025,-5,1,"44.507801, -67.6025"
05487,Starksboro,VT,44.224103,-73.03164,-5,1,"44.224103, -73.03164"
05861,Passumpsic,VT,44.46239,-72.135804,-5,1,"44.46239, -72.135804"
10969,Pine Island,NY,41.295568,-74.48935,-5,1,"41.295568, -74.48935"
18230,Junedale,PA,40.924427,-75.94189,-5,1,"40.924427, -75.94189"
19408,Eagleville,PA,40.156555,-75.413127,-5,1,"40.156555, -75.413127"
38389,Yorkville,TN,36.135364,-89.111653,-6,1,"36.135364, -89.111653"
38548,Buffalo Valley,TN,36.163234,-85.78987,-6,1,"36.163234, -85.78987"
39595,Pascagoula,MS,30.441072,-88.634482,-6,1,"30.441072, -88.634482"
33003,Florida City,FL,25.455229,-80.475479,-5,1,"25.455229, -80.475479"
33559,Land O' Lakes,FL,28.156536,-82.415275,-5,1,"28.156536, -82.415275"
33740,Saint Petersburg,FL,27.891809,-82.724763,-5,1,"27.891809, -82.724763"
45204,Cincinnati,OH,39.093345,-84.56428,-5,1,"39.093345, -84.56428"
26431,Shinnston,WV,39.392285,-80.28438,-5,1,"39.392285, -80.28438"
24237,Dante,VA,37.001752,-82.28089,-5,1,"37.001752, -82.28089"
25039,Cedar Grove,WV,38.242575,-81.39377,-5,1,"38.242575, -81.39377"
25716,Huntington,WV,38.413384,-82.277401,-5,1,"38.413384, -82.277401"
43434,Harbor View,OH,41.645699,-83.620233,-5,1,"41.645699, -83.620233"
28624,Ferguson,NC,36.110425,-81.42262,-5,1,"36.110425, -81.42262"
29324,Clifton,SC,34.99056,-81.83271,-5,1,"34.99056, -81.83271"
97204,Portland,OR,45.51854,-122.6755,-8,1,"45.51854, -122.6755"
97543,Wilderville,OR,42.365473,-123.50865,-8,1,"42.365473, -123.50865"
80281,Denver,CO,39.74394,-104.987577,-7,1,"39.74394, -104.987577"
82059,Granite Canon,WY,41.051097,-105.19216,-7,1,"41.051097, -105.19216"
84051,Mountain Home,UT,40.42204,-110.38597,-7,1,"40.42204, -110.38597"
86302,Prescott,AZ,34.574921,-112.491528,-7,0,"34.574921, -112.491528"
75785,Rusk,TX,31.79364,-95.16761,-6,1,"31.79364, -95.16761"
75936,Chester,TX,30.942336,-94.58376,-6,1,"30.942336, -94.58376"
76126,Fort Worth,TX,32.649476,-97.49124,-6,1,"32.649476, -97.49124"
76569,Rogers,TX,30.932552,-97.22374,-6,1,"30.932552, -97.22374"
77519,Batson,TX,30.249734,-94.60291,-6,1,"30.249734, -94.60291"
67114,Newton,KS,38.051679,-97.323,-6,1,"38.051679, -97.323"
67518,Beeler,KS,38.427837,-100.16811,-6,1,"38.427837, -100.16811"
67837,Copeland,KS,37.554849,-100.67514,-6,1,"37.554849, -100.67514"
68651,Osceola,NE,41.21361,-97.56993,-6,1,"41.21361, -97.56993"
56502,Detroit Lakes,MN,46.933961,-95.678375,-6,1,"46.933961, -95.678375"
57754,Lead,SD,44.312922,-103.83118,-7,1,"44.312922, -103.83118"
58258,Mekinock,ND,48.008825,-97.35424,-6,1,"48.008825, -97.35424"
50076,Exira,IA,41.592497,-94.87032,-6,1,"41.592497, -94.87032"
50527,Curlew,IA,42.973868,-94.78269,-6,1,"42.973868, -94.78269"
51527,Defiance,IA,41.828495,-95.34363,-6,1,"41.828495, -95.34363"
52001,Dubuque,IA,42.515252,-90.6794,-6,1,"42.515252, -90.6794"
62818,Browns,IL,38.378706,-87.97291,-6,1,"38.378706, -87.97291"
63464,Plevna,MO,39.972337,-92.06553,-6,1,"39.972337, -92.06553"
63654,Lesterville,MO,37.478054,-90.83766,-6,1,"37.478054, -90.83766"
48915,Lansing,MI,42.737701,-84.57106,-5,1,"42.737701, -84.57106"
61027,Eleroy,IL,42.332038,-89.761171,-6,1,"42.332038, -89.761171"
61766,Towanda,IL,40.564323,-88.898663,-6,1,"40.564323, -88.898663"
28612,Connellys Springs,NC,35.693787,-81.51726,-5,1,"35.693787, -81.51726"
34448,Homosassa,FL,28.797979,-82.5912,-5,1,"28.797979, -82.5912"
36527,Spanish Fort,AL,30.684873,-87.89723,-6,1,"30.684873, -87.89723"
24029,Roanoke,VA,37.274175,-79.95786,-5,1,"37.274175, -79.95786"
28219,Charlotte,NC,35.26002,-80.804151,-5,1,"35.26002, -80.804151"
30751,Tennga,GA,34.981449,-84.735233,-5,1,"34.981449, -84.735233"
31650,Willacoochee,GA,31.375165,-83.01949,-5,1,"31.375165, -83.01949"
31737,Colquitt,GA,31.152253,-84.69653,-5,1,"31.152253, -84.69653"
24210,Abingdon,VA,36.728639,-82.00845,-5,1,"36.728639, -82.00845"
72107,Menifee,AR,35.145915,-92.54648,-6,1,"35.145915, -92.54648"
72943,Magazine,AR,35.184949,-93.80443,-6,1,"35.184949, -93.80443"
75232,Dallas,TX,32.664034,-96.83886,-6,1,"32.664034, -96.83886"
80463,McCoy,CO,39.912186,-106.74302,-7,1,"39.912186, -106.74302"
94938,Lagunitas,CA,38.017617,-122.6943,-8,1,"38.017617, -122.6943"
95044,Redwood Estates,CA,37.189396,-121.705327,-8,1,"37.189396, -121.705327"
95344,Merced,CA,37.378234,-120.617808,-8,1,"37.378234, -120.617808"
95456,Littleriver,CA,39.268774,-123.75568,-8,1,"39.268774, -123.75568"
15840,Falls Creek,PA,41.160521,-78.81129,-5,1,"41.160521, -78.81129"
07820,Allamuchy,NJ,40.869648,-74.849661,-5,1,"40.869648, -74.849661"
08324,Heislerville,NJ,39.218484,-74.99001,-5,1,"39.218484, -74.99001"
11854,Hicksville,NY,40.754757,-73.601772,-5,1,"40.754757, -73.601772"
19426,Collegeville,PA,40.185637,-75.44873,-5,1,"40.185637, -75.44873"
19717,Newark,DE,39.564499,-75.597047,-5,1,"39.564499, -75.597047"
20591,Washington,DC,38.893311,-77.014647,-5,1,"38.893311, -77.014647"
21290,Baltimore,MD,39.293256,-76.623839,-5,1,"39.293256, -76.623839"
26050,Newell,WV,40.616853,-80.60454,-5,1,"40.616853, -80.60454"
14742,Greenhurst,NY,42.120512,-79.30958,-5,1,"42.120512, -79.30958"
14744,Houghton,NY,42.426885,-78.19509,-5,1,"42.426885, -78.19509"
14776,Rossburg,NY,42.260012,-78.016139,-5,1,"42.260012, -78.016139"
04530,Bath,ME,43.900651,-69.83405,-5,1,"43.900651, -69.83405"
01354,Northfield,MA,42.522178,-72.624164,-5,1,"42.522178, -72.624164"
74553,Kiowa,OK,34.708098,-95.90485,-6,1,"34.708098, -95.90485"
76574,Taylor,TX,30.574821,-97.40948,-6,1,"30.574821, -97.40948"
77833,Brenham,TX,30.183651,-96.40258,-6,1,"30.183651, -96.40258"
81233,Howard,CO,38.442267,-105.85054,-7,1,"38.442267, -105.85054"
81637,Gypsum,CO,39.690233,-107.02552,-7,1,"39.690233, -107.02552"
82844,Wolf,WY,44.788759,-107.21937,-7,1,"44.788759, -107.21937"
80037,Commerce City,CO,39.80797,-104.407918,-7,1,"39.80797, -104.407918"
98368,Port Townsend,WA,48.100255,-122.79736,-8,1,"48.100255, -122.79736"
98609,Carrolls,WA,46.071482,-122.864838,-8,1,"46.071482, -122.864838"
95111,San Jose,CA,37.284042,-121.82664,-8,1,"37.284042, -121.82664"
92057,Oceanside,CA,33.240926,-117.29851,-8,1,"33.240926, -117.29851"
93108,Santa Barbara,CA,34.433687,-119.63184,-8,1,"34.433687, -119.63184"
28711,Black Mountain,NC,35.605146,-82.31665,-5,1,"35.605146, -82.31665"
32094,Wellborn,FL,30.203153,-82.81421,-5,1,"30.203153, -82.81421"
43747,Jerusalem,OH,39.862128,-81.11139,-5,1,"39.862128, -81.11139"
43787,Stockport,OH,39.536415,-81.80009,-5,1,"39.536415, -81.80009"
03779,Piermont,NH,43.976427,-72.04409,-5,1,"43.976427, -72.04409"
04095,West Newfield,ME,43.642631,-70.91218,-5,1,"43.642631, -70.91218"
04263,Leeds,ME,44.283844,-70.11254,-5,1,"44.283844, -70.11254"
24065,Boones Mill,VA,37.116716,-79.95528,-5,1,"37.116716, -79.95528"
25281,Tariff,WV,38.682668,-81.18846,-5,1,"38.682668, -81.18846"
16619,Blandburg,PA,40.684811,-78.41481,-5,1,"40.684811, -78.41481"
16659,Loysburg,PA,40.16478,-78.37709,-5,1,"40.16478, -78.37709"
16680,Smithmill,PA,40.75212,-78.41085,-5,1,"40.75212, -78.41085"
18020,Bethlehem,PA,40.656498,-75.32938,-5,1,"40.656498, -75.32938"
18342,Mountainhome,PA,41.145778,-75.294125,-5,1,"41.145778, -75.294125"
18428,Hawley,PA,41.427945,-75.13473,-5,1,"41.427945, -75.13473"
19244,Philadelphia,PA,40.001811,-75.11787,-5,1,"40.001811, -75.11787"
14805,Alpine,NY,42.366682,-76.72562,-5,1,"42.366682, -76.72562"
15874,Worthville,PA,41.027511,-79.141174,-5,1,"41.027511, -79.141174"
06814,Danbury,CT,41.308873,-73.363661,-5,1,"41.308873, -73.363661"
92567,Nuevo,CA,33.819818,-117.11778,-8,1,"33.819818, -117.11778"
93703,Fresno,CA,36.767299,-119.765,-8,1,"36.767299, -119.765"
94661,Oakland,CA,37.680181,-121.921498,-8,1,"37.680181, -121.921498"
90263,Malibu,CA,34.035087,-118.70752,-8,1,"34.035087, -118.70752"
62037,Grafton,IL,38.985138,-90.44563,-6,1,"38.985138, -90.44563"
62427,Flat Rock,IL,38.869453,-87.66502,-6,1,"38.869453, -87.66502"
63052,Imperial,MO,38.385265,-90.40339,-6,1,"38.385265, -90.40339"
63841,Dexter,MO,36.784453,-89.97428,-6,1,"36.784453, -89.97428"
63851,Hayti,MO,36.235881,-89.74861,-6,1,"36.235881, -89.74861"
78722,Austin,TX,30.289307,-97.71659,-6,1,"30.289307, -97.71659"
80233,Denver,CO,39.903043,-104.9544,-7,1,"39.903043, -104.9544"
80832,Ramah,CO,39.034273,-104.07125,-7,1,"39.034273, -104.07125"
82845,Wyarno,WY,44.725332,-106.66324,-7,1,"44.725332, -106.66324"
83277,Springfield,ID,43.074319,-112.68229,-7,1,"43.074319, -112.68229"
67209,Wichita,KS,37.67129,-97.4372,-6,1,"37.67129, -97.4372"
68431,Rulo,NE,40.056628,-95.43297,-6,1,"40.056628, -95.43297"
68501,Lincoln,NE,40.865142,-96.823133,-6,1,"40.865142, -96.823133"
70402,Hammond,LA,30.513982,-90.480403,-6,1,"30.513982, -90.480403"
72762,Springdale,AR,36.186059,-94.1937,-6,1,"36.186059, -94.1937"
77058,Houston,TX,29.55283,-95.10265,-6,1,"29.55283, -95.10265"
83544,Orofino,ID,46.485334,-116.20071,-8,1,"46.485334, -116.20071"
85226,Chandler,AZ,33.312208,-111.93177,-7,0,"33.312208, -111.93177"
58365,Rocklake,ND,48.84741,-99.26643,-6,1,"48.84741, -99.26643"
56524,Clitherall,MN,46.235125,-95.61543,-6,1,"46.235125, -95.61543"
57629,Glad Valley,SD,44.992051,-101.568656,-7,1,"44.992051, -101.568656"
51346,Hartley,IA,43.183038,-95.46787,-6,1,"43.183038, -95.46787"
40461,Paint Lick,KY,37.59483,-84.40789,-5,1,"37.59483, -84.40789"
42021,Arlington,KY,36.796741,-88.997,-6,1,"36.796741, -88.997"
42060,Lovelaceville,KY,36.968906,-88.82817,-6,1,"36.968906, -88.82817"
42170,Woodburn,KY,36.832502,-86.554,-6,1,"36.832502, -86.554"
32317,Tallahassee,FL,30.479347,-84.346204,-5,1,"30.479347, -84.346204"
35055,Cullman,AL,34.167893,-86.82506,-6,1,"34.167893, -86.82506"
45050,Monroe,OH,39.441008,-84.36582,-5,1,"39.441008, -84.36582"
45701,Athens,OH,39.322847,-82.09728,-5,1,"39.322847, -82.09728"
47132,Jeffersonville,IN,38.286819,-85.732062,-5,1,"38.286819, -85.732062"
38378,Spring Creek,TN,35.764637,-88.685,-6,1,"35.764637, -88.685"
61341,Marseilles,IL,41.336202,-88.69727,-6,1,"41.336202, -88.69727"
61876,Sidell,IL,39.907331,-87.82587,-6,1,"39.907331, -87.82587"
62525,Decatur,IL,39.853981,-88.981511,-6,1,"39.853981, -88.981511"
64118,Kansas City,MO,39.213082,-94.57248,-6,1,"39.213082, -94.57248"
71864,Willisville,AR,33.70082,-93.294126,-6,1,"33.70082, -93.294126"
